stop_id,stop_lat,stop_lon,stop_name
mfdz:Ang001,53.11901,14.015776,Mitfahrbank Biesenbrow
mfdz:Ang002,52.950771,14.00037,Mitfahrbank Bölkendorf
mfdz:Ang003,52.978402,14.113301,Mitfahrbank Stolpe
mfdz:Ang004,53.087254,13.95524,Mitfahrbank Greiffenberg
mfdz:Ang005,53.022184,13.999941,"Mitfahrbank Angermünde, Einkaufscenter"
osm:n246750517,49.772061,6.7513818,Mitfahrerparkplatz Mertesdorf
osm:n1297181670,49.4725159,7.9141633,Mitfahrerparkplatz
osm:n1371715129,50.5556584,7.2435443,Car Sharing / Mitfahrerparkplatz
osm:n1371715130,50.5549212,7.2436623,Car Sharing / Mitfahrerparkplatz
osm:n7190540383,49.6125539,7.9993048,Mitfahrerparkplatz
osm:w5664029,51.983966039689186,7.58944630516735,Mitfahrerparkplatz Wilkinghege
osm:w23327596,49.8564069219394,6.54079518915107,Mitfahrerparkplatz Helenenberg
osm:w26323672,51.62555589952826,7.847661611563551,P+R Mitfahrer Parkplatz
osm:w31758916,49.668567523384084,8.023899017053289,Mitfahrerparkplatz A63 AS Kirchheimbolanden
osm:w32149740,49.40918545289971,7.5373469843988214,Mitfahrerparkplatz Hahnensteige
osm:w33456190,49.34286425806371,8.151456236216646,Mitfahrerparkplatz
osm:w37608237,49.46830109788024,8.232262923310433,Mitfahrerparkplatz
osm:w40871526,49.475112696384805,7.905908190367819,Mitfahrerparkplatz
osm:w40994294,49.7933814792931,8.141396616181288,Mitfahrerparkplatz A63 AS Biebelnheim
osm:w61419860,49.44725718710447,7.705463327932136,Mitfahrerparkplatz
osm:w82558006,49.976520571485835,7.517576602031544,Mitfahrparkplatz
osm:w97869536,49.45794435144733,7.805132895826054,Mitfahrerparkplatz
osm:w118641584,49.856345797754386,6.799381059956122,Mitfahrerparkplatz Bekond
osm:w120655724,49.7175192067668,8.07579802078706,Mitfahrerparkplatz A63 AS Freimersheim
osm:w148464127,49.95531551903363,7.943301403545675,Mitfahrerparkplatz Bingen-Kempten
osm:w150801581,49.95540774550013,6.509369873008651,Mitfahrerparkplatz Masholder
osm:w157913618,50.04641579901969,6.915307330224634,Mitfahrerparkplatz Hasborn
osm:w159372718,49.92331569365909,7.826854064744968,Mitfahrerparkplatz
osm:w159397754,49.34276125043421,6.792262574426599,Mitfahrer Parken
osm:w159397755,49.34219557651128,6.791502289116391,Mitfahrer Parken
osm:w179552654,49.4214920219758,8.28902532845944,Mitfahrerparkplatz
osm:w197860651,49.90007357746042,6.5427255440759815,Mitfahrerparkplatz Meilbrück
osm:w198084028,49.86420075830094,7.884397594040836,Mitfahrerparkplatz
osm:w199700421,49.988619189306775,6.7800135449874785,Mitfahrerparkplatz Landscheid
osm:w209331588,50.118751191737154,7.6043475777876495,Mitfahrerparkplatz
osm:w253358544,50.01607421278139,6.6099460887163675,Mitfahrerparkplatzt AS Badem
osm:w291861878,49.194161342267016,8.154469776785017,Mitfahrerparkplatz Landau-Zentrum
osm:w380607204,49.773224865332935,6.5952890881676085,Mitfahrerparkplatz Sirzenich
osm:w427780143,50.23930781571193,7.512240123726817,Mitfahrerparkplatz Pfaffenheck
osm:w440907295,52.33966933171668,14.074576870467782,Mitfahrerparkplatz
osm:w477138583,49.67210987993317,6.895287032786898,Mitfahrerparkplatz
osm:w499633524,49.45342881954859,7.821076853687385,Mitfahrerparkplatz A6
osm:w515168292,48.80619753469625,10.210053548702993,Parken und Mitfahren
osm:w536625617,50.20991225989569,6.883359763883239,Mitfahrerparkplatz AS Daun/Darscheid
osm:w617823435,50.16925130084597,6.88621244665215,Mitfahrerparkplatz Mehren
osm:w638871967,49.80784762194713,7.113869168848486,Mitfahrerparkplatz Morbach/B327
osm:w664084482,49.118987634883794,7.866005574686244,Mitfahrerparkplatz Vorderweidenthal
osm:w678846342,49.95148891462864,6.524506460154391,Mitfahrerparkplatz Masholder
osm:w692241455,49.59640747491761,6.534788744210254,Mitfahrerparkplatz Saarburg
osm:w699667259,49.876975526469714,7.117778346505934,Mitfahrerparkplatz Kommen
osm:w741011056,50.09453924405128,6.448706621623575,Mitfahrerparkplatz Feuerscheid
de:08415:29061,48.579968,9.172464,Walddorf Walddorfhäslach P&M
de:09377:15125,49.868926,11.882232,"Kemnath, Bayreuther Str. Mitfahrerbank"
de:09377:15310,49.874339,11.889454,"Kemnath, Wunsiedler Str./Mitfahrerbank"
de:09377:15344,49.866384,11.89426,"Kemnath, Anzensteinstr. Mitfahrerbank"
de:09377:15356,49.868961,11.900153,"Kemnath, Werner-v.-Siemens-Str. Mitfahre"
de:07235:10043,49.856563,6.800067,"Bekond, Mitfahrerparkplatz"
de:08226:3332,49.275336,8.69403,"Rauenberg, Mitfahrerparkplatz"
de:08436:8049,47.753636,9.596792,RV Gewerbegebiet Mariatal
osm:w34913296,47.76796822707724,9.60185707095775,P+R Weißenau
osm:n656629418,47.7668905,9.5946927,P+R-Parkplatz
osm:w149368296,47.78383906409316,9.605242587789775,P+R-Parkplatz
osm:w163026769,47.816958915106014,9.616510614115292,P+R
osm:n301892991,47.8305652,9.6215249,P+R
osm:w323660404,47.85089124806348,9.637949453247327,P+R-Parkplatz
de:08436:48152,47.879709,9.707312,Bad Waldsee Enzisreute
de:08436:1142,47.895546,9.720661,Bad Waldsee Gaisbeuren B30
de:08436:91291,47.963243,9.764076,"Bad Waldsee, Englerts/ B30"
de:08426:6157,48.070197,9.810968,Rißegg-Halde
de:08426:6392,48.153651,9.854617,Äpfingen Rose
de:08426:6388,48.152326,9.868541,Sulmingen
de:08426:6379,48.15096,9.897458,Heggbach Torhaus
de:08426:6566,48.154004,9.942024,Schönebürg Rottumbrücke
de:08426:6565,48.15606,9.946892,Schönebürg Raiba
de:08426:6570,48.167876,9.966278,Dietenbronn Abzw.
de:08426:6559,48.175179,9.974803,Schwendi Rathausplatz
tmp-1,48.1756438,9.9784952,"Schwendi, Gemeindeverwaltungsverband Schwendi"
de:08436:8126,47.792323,9.616151,"RV, Oberschwabensch./Eissport."
de:08426:6178,48.087668,9.794367,Biberach Polizei/BSZ
de:08426:6134,48.090608,9.792194,Biberach Waldseer Straße
de:08426:6084,48.093146,9.790666,Biberach Arbeitsagentur
de:08426:6132,48.096962,9.791178,Biberach Viehmarkt/Zeppelinri.
tmp-2,48.0984413,9.7899938,"Biberach (Riß), Biberach an der Riß"
de:09763:376,47.740214,10.307117,"Kempten, Memminger Str./Breite"
de:09763:612,47.737199,10.307701,"Kempten, Memm.-/F.v.Ried Str."
de:09763:31,47.736317,10.307377,"Kempten, Äussere Rottach/Mem."
de:09763:611,47.73349,10.310477,"Kempten, Memminger Str./Madlen"
de:09763:610,47.731049,10.311078,"Kempten, Memminger Str./Engel"
de:09763:281,47.73007,10.310054,"Kempten, Prälat-Götz-Str."
de:09763:649,47.729544,10.310683,"Kempten, Memminger Str./Traube"
de:09763:642,47.725834,10.31071,"Kempten, Salzstr."
de:09763:606,47.720347,10.314474,"Kempten, Forum Allgäu"
de:09763:697,47.716703,10.314258,"Kempten, Bahnhofstr./Hochsch."
de:09763:698,47.712708,10.314914,"Kempten, Bahnh.str./Denkfabrik"
de:09763:2430,47.710749,10.313773,"Kempten, Bf-Str./Immenst.Str."
de:09763:101,47.706216,10.31204,"Kempten, Oberstd.Str./Im Moos"
de:09763:102,47.70202,10.312893,"Kempten, Oberstd.Str./Adelharz"
de:09763:103,47.697141,10.312722,"Kempten, Weißholz B19"
de:09780:104,47.693241,10.311555,"Hegge, Oberhegge B19"
de:09780:105,47.687188,10.309722,"Hegge, Hegge B19"
de:09780:519,47.649494,10.295142,Herzmanns
de:09780:594,47.62955,10.280087,"Martinszell, Abzw."
de:09780:522,47.626463,10.277526,"Oberdorf, Abzw."
de:09780:802,47.520642,10.281991,"Sonthofen, Grüntenstraße"
tmp-3,47.5235909,10.2816759,"Grüntenstraße, Sonthofen"
de:08436:1266,47.723,9.965119,Argenbühl Christazhofen
de:08436:41,47.727514,9.974749,Argenbühl Steig
de:08436:48786,47.738873,9.956891,Argenbühl Baldenhofen
de:08436:48787,47.748399,9.944521,"Argenbühl Göttlishofen, Au"
de:08436:1310,47.750145,9.915397,Kißlegg Knittelsbach
de:08436:1338,47.728565,9.874344,Kißlegg Brauerei Farny
de:08436:8565,47.702842,9.797574,Amtzell Karbach
de:09776:1853,47.604281,9.732815,Schwatzen
de:09776:1601,47.575685,9.708956,Schönbühl
de:08435:44153,47.646747,9.506763,FN Lindauer Straße
de:08435:4153,47.649706,9.499136,FN Berufsschulzentrum
de:08435:44152,47.649863,9.497798,Friedrichsh. Jugendherberge
de:08435:44151,47.651588,9.493647,Friedrichshafen Eberhardstraße
de:08435:4220,47.652599,9.487683,Friedrichsh. Eckenerstraße
de:08435:4100,47.654571,9.48188,FN Löwenunterf./Ailinger Str.
osm:w428469290,47.657472734546715,9.48066580563059,P+R-Parkplatz
de:08435:4043,47.654626,9.479221,Friedrichshafen Charlottenstr.
de:08435:4186,47.655031,9.475151,Friedrichshafen Riedleparkstr.
de:08435:44690,47.656592,9.471818,Friedrichsh. MTU Maybachstraße
tmp-4,47.6579169,9.4689331534,"MTU Friedrichshafen - Werk 1, Friedrichshafen"
de:08436:44,47.704438,9.982726,Argenbühl Kreuzbühl
de:08436:8581,47.67456,9.95813,Argenbühl Untervorholz
de:08436:8580,47.670894,9.95107,Argenbühl Moorbad
de:08436:8593,47.664918,9.946623,Argenbühl Abzw. Burg B12
de:08436:8577,47.663895,9.941359,Argenbühl Schaulings
de:09776:1157,47.637057,9.960268,"Röthenbach, Steinegaden"
de:09776:2175,47.636294,9.959541,"Steinegaden, Abz Röthenbach"
de:09776:2177,47.633479,9.955453,"Röthenbach, Egg Abz"
de:09776:1202,47.627516,9.949551,"Röthenbach, Wigglis"
de:09776:1756,47.622776,9.944215,"Heimenkirch, Dreiheiligen"
de:09776:2192,47.6123,9.932115,"Röthenbach, Auers St 2001"
de:09776:1502,47.604959,9.912505,"Lindenberg, Manzen"
de:09776:1754,47.60055,9.896245,"Lindenberg, Lindenalpe"
de:09776:1755,47.60115,9.88976,"Lindenberg, Café Venezia"
tmp-5,47.6015641,9.8863905,Lindenberg im Allgäu
de:09776:1505,47.602785,9.885645,"Lindenberg, ZOB"
de:09776:1758,47.604475,9.889104,"Lindenberg, Hutmacherplatz"
de:09776:1776,47.606443,9.892751,"Lindenberg, Untere Hauptstr."
de:09776:1504,47.609375,9.896335,"Lindenberg, Goßholzer Str."
de:09776:1899,47.612209,9.900243,"Lindenberg, Mauderer"
de:09776:1757,47.614886,9.907789,"Lindenberg, Goßholz"
de:09776:2230,47.615909,9.913852,"Heimenkirch, Geigersthal Abzw."
de:09776:1766,47.616769,9.923168,"Heimenkirch, Goßholzer Steig"
de:08426:6563,48.175089,9.975827,Schwendi St.-Anna-Kapelle
osm:w149368294,47.78451825,9.60566905,P+R-Parkplatz
de:09764:3236,47.988302,10.199912,"Memmingen, Mammostraße"
de:09764:3231,47.978477,10.181595,"Memmingen, Allg.Str/Netto"
de:09764:3302,47.973817,10.183176,"Memmingen, Fa. Magnet Schultz"
de:09764:3301,47.971014,10.182377,"Memmingen, Firma Stehle"
de:09764:3228,47.967454,10.182386,"Memmingen, Birkenweg"
osm:w275612694,47.96256918210594,10.183054407838563,P+M
osm:w530978575,47.73837961754658,10.338576528003644,Park and Ride Kempten
de:09763:123,47.736257,10.330473,"Kempten, Auf dem Bühl/R.-Str."
de:09763:285,47.73561,10.327949,"Kempten, Stephan-/Bleicherstr."
de:09763:653,47.735091,10.327131,"Kempten, Stephan-/Ulmer Str."
de:09763:652,47.73439,10.325389,"Kempten, Stephstr./Berl.Platz"
de:09763:287,47.73413,10.32352,"Kempten, Berliner Pl./Adenauer"
de:09763:651,47.73842,10.31716,"Kempten, Nordbrücke"
de:09763:894,47.731496,10.304826,"Kempten, Pettenkofer/Adenauerr"
de:09763:893,47.729834,10.30391,"Kempten, R.-Weixler/Adenauer."
de:09763:198,47.727115,10.304422,"Kempten, Adenauerr./Haubenst."
de:09763:601,47.726366,10.304754,"Kempten, Adenauerring"
de:09763:175,47.717863,10.297379,"Kempten, Am Göhlenbach"
de:09763:183,47.719845,10.296436,"Kempten, Stadtbad"
de:09763:184,47.720909,10.296463,"Kempten, Stadtbadstr./Göhlenb"
tmp-6,47.7208232,10.2946342641,"JUFA Kempten im Allgäu, Kempten (Allgäu)"
de:08426:6104,48.096266,9.792229,Biberach Landratsamt
de:08426:6085,48.09308,9.793595,Biberach Bürgerheim/Rollinstr.
tmp-7,47.7940968,9.6211152269,"Vetter Pharma, Ravensburg"
de:09763:142,47.731345,10.305212,"Kempten, Maria-Ward-Schule"
tmp-8,47.9898051,10.1994295,"Mammostraße, Memmingen"
de:08425:2401,48.454069,9.964113,Dornstadt Rommelkaserne
de:08421:1013,48.449934,9.969162,Lehr Gewerbegebiet Ulm-Nord
de:08421:1105,48.432706,9.977202,Lehr Mariusweg
de:08421:1357,48.394677,9.979402,Ulm Finanzamt
de:09775:1999,48.38966,9.986553,Neu-Ulm GP Bus Adenauerbrücke
de:09775:1701,48.388616,9.988691,Neu-Ulm Adenauerbrücke
osm:w662908475,48.329583241917234,9.9441408480731,P+M Donaustetten
de:08436:1375,47.818544,9.629715,Weingarten Gewerbegebiet Welte
de:08436:8174,47.807969,9.632356,Weingarten Blumenau
de:08421:1245,48.423985,9.951537,Ulm Kliniken Oberer Eselsberg
de:08421:1244,48.424343,9.952435,Ulm Staudingerstraße
de:08421:1241,48.42513,9.956558,Ulm Botanischer Garten
de:08421:1108,48.426239,9.956415,Ulm Sportpark Nord
de:08426:6645,48.139901,9.807645,Herrlishöfen Alte Schule
de:08426:6081,48.104821,9.798967,Biberach Birkendorfschule
de:08426:6089,48.101119,9.796532,Biberach Evang.Friedhof
de:08426:6177,48.101815,9.794125,Biberach Bhf./Freiburger Str.
tmp-9,48.101927,9.7931144,"Bahnhof, Biberach an der Riß"
de:08421:1001,48.397188,9.987658,Ulm Steinerne Brücke
de:08421:1350,48.394659,9.981127,Ulm Ehinger Tor
osm:w343742312,48.28700916978861,10.120144640883769,P2
osm:w29872967,48.284636962771415,10.11193895450078,P1
osm:w174854675,48.220364808792645,10.12778552354364,P3
osm:w26332167,48.14712956437301,10.11956582893921,P+M
osm:w245113332,47.99633802796308,10.158060909360143,Park & Fly
de:09764:3293,47.991489,10.162299,"Memmingen, Buxh.Str./Tankst."
de:09764:3272,47.990226,10.167186,"Memmingen, Wagnerstraße"
de:09764:3265,47.989361,10.170869,"Memmingen, Hallenbad"
tmp-10,47.9867696,10.181319,Memmingen
de:08135:1601,48.66277,10.068902,Küpfendorf Abzw.Küpfendorf
de:08135:1628,48.651258,10.050504,Steinheim Bundeswehrdepot
de:08135:1093,48.641732,10.036149,Gerstetten Erpfenhausen
de:08135:1111,48.622199,10.020815,Gerstetten Gartenstraße
de:08135:1105,48.62059,10.022495,Gerstetten Felsen
de:08135:1171,48.596737,10.089617,Heuchlingen Gardena
osm:w663270441,48.572992892510506,10.155440998566274,P+M Niederstotzingen
de:08425:3953,48.557623,10.126403,Albeck GP Bus Giengen
osm:w502108237,48.49263988004687,10.089584556409942,P+R
de:09775:1745,48.382173,10.005678,Neu-Ulm Arena
de:09775:1725,48.379268,10.00663,Neu-Ulm Edisoncenter
tmp-11,48.38044335,10.0101011516,"Hochschule Neu-Ulm, Neu-Ulm"
osm:w107936581,47.656062085626814,10.45707968515435,PP Schwarzenberg
osm:n4502138889,47.6658056,10.4184052,P+R-Parkplatz
de:09763:156,47.736486,10.327625,"Kempten, Bleicherstr./McDonald"
tmp-12,47.7366086,10.327816,"McDonald's Kempten, Kempten (Allgäu)"
de:09777:1024,47.986258,10.78573,Haspelweiher
de:09181:4302,47.98155,10.849618,"Unterdießen, Gewerbegebiet"
de:09181:2102,47.956434,10.862042,Römerkessel Ort
de:09181:2103,47.951121,10.864575,Hohenwart Hohenwart
de:09181:2104,47.937197,10.865411,Lechblick
de:09181:2902,47.879287,10.892369,B 17 Abzw. Kinsau
de:09190:41328,47.848014,10.897669,Hohenfurch B 17
de:09190:41519,47.830589,10.902628,Schongau Reitschule
de:09190:41520,47.823967,10.900697,Schongau Kreiskrankenhaus Abzw.
de:09190:41521,47.821313,10.898756,Schongau Adalbert-Keis-Str.
de:09190:41527,47.820414,10.898568,Schongau Europaplatz
de:09190:41513,47.812331,10.902457,Schongau
de:09190:69267,47.809821,10.902412,"Schongau Lechvorstadt,Dornau (Obb)"
de:09190:41512,47.808693,10.906338,Schongau Peitinger Straße
de:09190:69255,47.811969,10.917019,"Schongau Märchenwald,Dornau (Obb)"
de:09190:90504,47.815468,10.92249,"Schongau, Industriegebiet Ost"
de:09190:90505,47.821313,10.93291,"Schongau, Wanderhofstr."
de:09190:69256,47.821108,10.933494,"Herzogsägmühle Wanderhofstr.,Aich (Peiting)"
de:09190:69257,47.818086,10.938974,Herzogsägmühle Verwaltung
tmp-13,47.819701,10.938452,"Herzogsägmühle, Peiting"
de:09178:2854,48.399586,11.741628,"Freising, Obere Hauptstraße"
osm:w4363263,48.395429174588806,11.746443669041724,P+R am Bahnhof
de:09178:2937,48.391205,11.738376,"Freising, Angerstr. Durchgang"
de:09178:2859,48.386445,11.736938,"Freising, Schlüterstraße"
osm:w241095906,48.21132624182836,11.460794028061482,P+R-Parkplatz
de:09179:6479,48.116613,11.368207,"Germering, Riegerstraße"
de:09188:5393,48.084955,11.200842,"Etterschlag, Etterschlag Süd"
de:09181:1502,48.077339,11.114514,Eching Kreisverkehr
de:09181:2307,48.071349,11.083333,"Greifenberg, Beurer Straße"
tmp-14,47.5810741,10.7070148,"Augsburger Straße, Füssen"
de:09777:1029,47.995962,10.776711,"Waal, Post"
de:09181:3073,48.054611,10.873909,"Landsberg, Evangelische Kirche"
de:09181:3003,48.049369,10.876577,Landsberg Hauptplatz
de:09181:3006,48.047982,10.882272,Landsberg Bayertor
de:09181:3025,48.047129,10.883485,Landsberg Weilheimer Straße
de:09181:3075,48.045904,10.884841,"Landsberg, Feneberg"
de:09181:4105,48.005657,10.927601,Lengenfeld Nord
de:09181:2019,48.002105,10.92717,Lengenfeld Oberdorf
de:09181:6,47.988687,10.925724,Streicherhof Ort
de:09181:2,47.967574,10.938345,Abzw Abzw. Pflugdorf - Thaining
de:09181:4,47.943287,10.955449,Hochreiten Hof
de:09181:3502,47.937901,10.959599,Ludenhausen Siedlung
de:09181:3501,47.934055,10.961962,Ludenhausen Ludenhausen
de:09181:3074,48.048786,10.882757,"Landsberg, Epfenhauser Str."
de:09181:3031,48.051753,10.877628,"Landsberg, Hinterer Anger"
tmp-15,48.0514973,10.8737728,"Landsberg (Lech), Landsberg am Lech"
de:09184:2965,48.185296,11.646119,"Unterföhring, Betriebshst. LS"
de:09184:2013,48.185751,11.637683,"Unterföhring, Lohwiesenweg"
de:09184:2090,48.183822,11.633596,"Unterföhring, Siedlerstraße"
de:09162:462,48.18874,11.613743,Freimann Ost
de:09162:420,48.191961,11.614291,Freimann
osm:w160137336,48.03517656497184,10.748878771746947,Pendlerparkplatz
de:09778:2542,48.035717,10.502779,"Mindelheim, Nebelhornstr."
de:09778:3015,48.040673,10.49438,"Mindelheim, Krankenhaus"
tmp-16,48.0464164,10.4882504,Mindelheim
de:09180:99225,47.503537,11.101434,Unterfeldstraße
de:09180:42843,47.503082,11.102773,"Garmisch-Partenkirchen, Friedhof Partenkirchen"
de:09180:47212,47.509866,11.106941,"Garmisch-Partenkirchen, Am Brünnl"
de:09180:40108,47.565697,11.140861,"Oberau Alpenhof,Buchwies (Kr GAP)"
osm:w56078930,47.60342554790945,11.174392736952464,P+R-Parkplatz
osm:w67012663,47.70937474893495,11.403580453200181,P+R-Parkplatz
tmp-17,47.7081699,11.3980522,"Katholische Stiftungshochschule Benediktbeuern, Benediktbeuern"
de:09162:312,48.177192,11.529068,Georg-Brauchle-Ring
de:09162:9826,48.172339,11.528511,Abstellanlage Westfriedhof
de:09162:285,48.171273,11.530586,Stadtwerke München
de:09162:305,48.169673,11.533075,Borstei
de:09162:306,48.16639,11.537423,Olympiapark West
de:09162:164,48.162861,11.537692,Hanebergstraße
de:09162:153,48.159715,11.537144,Dom-Pedro-Straße
de:09162:163,48.156347,11.537539,Volkartstraße Ost
de:09162:29,48.151865,11.536973,Landshuter Allee
de:09162:103,48.150013,11.53683,Schlörstraße
de:09162:54,48.146267,11.535949,Donnersbergerstraße
de:09162:8,48.142658,11.53515,Donnersbergerbrücke
de:09162:65,48.140099,11.534377,Trappentreustraße
de:09162:102,48.136304,11.534314,Gollierplatz
de:09162:85,48.135009,11.534063,Kazmairstraße
osm:n4294376129,48.1312404,11.5319598,P+R Heimeranplatz
de:09162:1222,48.130195,11.528502,Garmischer Straße
osm:w158803970,48.12745813286077,11.521943869779376,City Parkplatz am Audi Dome
de:09162:1226,48.120535,11.518235,Hinterbärenbadstraße
de:09162:1340,48.117932,11.516591,Westpark
de:09162:1307,48.113374,11.517237,Luise-Kiesselbach-Platz
osm:w190516947,48.08772294544402,11.483125782937897,P+R
de:09190:41472,47.766794,11.352927,Penzberg Kirnberg
de:09190:43873,47.766885,11.354912,Penzberg Dr.-G.-Näher-Str.
tmp-18,47.77168025,11.3786664578,"Roche, Penzberg"
de:09162:93,48.135968,11.579518,Tal
de:09162:165,48.134128,11.574595,Schrannenhalle
de:09162:113,48.133187,11.573957,Blumenstraße
de:09162:141,48.130782,11.565899,Stephansplatz
de:09162:143,48.127533,11.563842,Waltherstraße
de:09162:59,48.125092,11.561947,Kapuzinerstraße
de:09162:144,48.12246,11.559081,Zenettistraße
de:09162:146,48.121368,11.557383,Ehrengutstraße
de:09162:1132,48.120433,11.555371,Lagerhausstraße
de:09162:1148,48.11233,11.553574,Schäftlarnstraße
de:09162:1154,48.096368,11.541079,Rupert-Mayer-Straße
de:09162:1162,48.092756,11.539974,Neunkirchner Straße
de:09162:1155,48.09179,11.539336,Ludwigshöher Straße
de:09162:1161,48.090164,11.537584,Wolfratshauser Straße
de:09162:1156,48.086293,11.534216,Krankenhaus Martha Maria
de:09162:1328,48.081252,11.529014,Friedastraße
osm:w242612132,48.08018246414116,11.527224285918846,P+R-Parkplatz
de:09162:1320,48.079104,11.526939,Solln
de:09162:1325,48.076913,11.525214,Sollner Straße
de:09162:1304,48.075365,11.523229,Ringelnatzweg
de:09162:1326,48.072382,11.519932,Melchiorstraße
de:09184:2486,48.064662,11.519241,"Pullach, Saarlandstraße"
de:09184:2518,48.062957,11.521325,"Pullach, Metzstraße"
osm:w244159564,48.05916838894787,11.522237994934539,P+R-Parkplatz
tmp-19,48.0556122,11.5217455,Pullach im Isartal
de:09162:3,48.133642,11.58303,Isartor
de:09162:26,48.132737,11.583767,Isartor/Zweibrückenstraße
de:09162:122,48.132533,11.585321,Ludwigsbrücke
de:09162:69,48.131856,11.58612,Deutsches Museum
osm:w460503172,48.13230417525721,11.592292974416566,P+R-Parkplatz
de:09162:4,48.12884,11.594061,Rosenheimer Platz
de:09162:8006,48.126813,11.597035,Pariser Straße
de:09162:89,48.12532,11.599487,Orleansstraße
de:09162:92,48.124181,11.601293,Kustermannpark
de:09162:1001,48.121218,11.605641,Anzinger Straße
de:09162:1003,48.115419,11.613393,Ramersdorf
osm:w200666966,47.87087596898263,11.777784164189205,P+R-Parkplatz
osm:w163057619,47.822528608737535,12.013962408084366,P+R Bad Aibling
osm:w25970053,47.80836451696515,12.12243794603897,Pendlerparkplatz Rosenheim
de:09187:40932,47.810895,12.375506,Bernau Minigolfplatz
de:09187:41010,47.803179,12.383132,Osterham
de:09187:40971,47.800922,12.391855,Bernau/Farbing
de:09189:40838,47.793475,12.412777,Rottau Verkehrsbüro
de:09189:40837,47.784983,12.427195,Klaushäusl Museum Salz + Moor
de:09189:40836,47.77815,12.443589,Kucheln
de:09189:40830,47.778869,12.449608,Grassau Kirchplatz
de:09189:40832,47.779575,12.452105,Grassau Rathaus
de:09178:2944,48.409903,11.748051,"Freising, Steinpark"
de:09178:2885,48.405621,11.74673,"Freising, Klinikum Ost"
de:09178:2682,48.40345,11.748131,"Freising, Klebelstraße"
de:09178:3073,48.401071,11.751069,"Freising, Christopher-Paudiß-Platz"
de:09178:2838,48.399478,11.749964,"Freising, Ottostr./Heiliggeistgasse"
osm:w4440611,48.39736585432949,11.74965184907874,Luitpoldstraße
de:09162:429,48.186446,11.606692,Autobahn Nord
osm:w169449554,48.18407699791125,11.606956939661119,P+R Studentenstadt
de:09162:9800,48.17954,11.603619,Abstellanlage Alte Heide
de:09162:530,48.178605,11.602649,Alte Heide
de:09162:520,48.1731,11.596909,Nordfriedhof
de:09162:518,48.1695,11.599011,Amsterdamer Straße
de:09162:511,48.163412,11.596154,Osterwaldstraße
de:09162:512,48.156036,11.607231,Herzogpark
de:09162:551,48.155484,11.608596,Redwitzstraße
de:09162:620,48.154136,11.611812,Isarring
de:09162:680,48.148532,11.6166,Richard-Strauss-Straße
de:09162:560,48.14351,11.615522,Böhmerwaldplatz
de:09162:663,48.139445,11.614812,Zaubzerstraße
de:09162:662,48.136874,11.614678,Einsteinstraße
de:09162:900,48.134266,11.615944,Leuchtenbergring
de:09162:901,48.130974,11.615711,Ampfingstraße
osm:w115777905,48.12073361498482,11.618512854950835,P+R Innsbrucker Ring
de:09184:2277,48.083977,11.625017,"Neubiberg, Am Hachinger Bach"
de:09184:2292,48.082705,11.62808,"Neubiberg, Marktplatz Unterbiberg"
tmp-20,48.07663125,11.6359748383,"Universität der Bundeswehr München, Neubiberg"
de:09187:79011,47.808132,12.019297,Kreuzstraße Hotel Maxim
de:09187:43676,47.789824,12.009811,Medical Park
de:09187:43678,47.77451,12.005265,Bad Feilnbach Pfeiffenthaler
tmp-21,47.7745858,12.0070798,Bad Feilnbach
de:09162:1224,48.126441,11.522304,Siegenburger Straße
de:09162:9988,48.13616,11.533946,Gollierstraße
osm:w157459874,48.170871334258436,11.528281207398079,P+R-Parkplatz
de:09162:360,48.182199,11.530029,Olympia-Einkaufszentrum
osm:w99722586,48.18265736669327,11.534389196069592,OEZ Parken Süd
de:09162:318,48.184014,11.531404,Olympia-Einkaufszentrum West
tmp-22,48.1827188,11.5302407,"Olympia-Einkaufszentrum, München"
de:09184:2575,48.120895,11.433209,"Gräfelfing, Sudetenstraße"
de:09184:2597,48.12526,11.435958,"Lochham, Adalbert-Stifter-Str."
de:09184:2596,48.126273,11.438231,"Lochham, Radlbäckstraße"
de:09184:2598,48.125164,11.443558,"Lochham, Würmstraße"
de:09184:2602,48.125344,11.447465,"Lochham, Am Kirchenhölzl"
osm:w27994059,48.28016033330114,11.269159235008885,P+R-Parkplatz
osm:w664349957,48.30831714432518,11.203127963401748,P+R-Parkplatz
de:09761:222,48.39083,10.939953,"Augsburg, Firma Karstadt"
de:09761:221,48.387191,10.931159,"Augsburg, Mühlmahdweg"
tmp-23,48.384038,10.9270712,"Lechhausen, Augsburg"
de:09188:5565,48.084049,11.198434,"Etterschlag, Sportplatz"
osm:w328528305,48.20995340194428,11.45957262449312,P+R Karlsfeld West
de:09184:2491,48.182834,11.652883,"Unterföhring, Etzweg"
de:09184:2498,48.184781,11.651688,"Unterföhring, Beta-Straße"
de:09184:2492,48.187656,11.651239,"Unterföhring, Dieselstraße"
osm:w460553344,48.175318108063905,11.587270577335644,P+R-Parkplatz
de:09162:986,48.178833,11.595238,Hannes-Meyer-Straße
de:09178:9724,48.397707,11.739319,"Freising, Johannisstraße"
de:09178:2832,48.399478,11.738223,"Freising, Schönmetzlerstraße"
de:09178:9872,48.401435,11.741439,"Freising, Ziegelgasse"
de:09178:2681,48.402663,11.743936,"Freising, Kammergasse"
tmp-24,48.41043165,11.7486314512,"SteinCenter, Freising"
osm:w9962973,48.22390569604366,11.678762005458482,P+R Ismaning (S)
de:09184:2114,48.225821,11.6712,"Ismaning, Parkstraße"
de:09184:2116,48.228903,11.67146,"Ismaning, Leuchtenbergstraße"
osm:w244098238,48.22725377504641,11.67974888978011,P+R-Parkplatz
de:09184:2085,48.233696,11.677605,"Ismaning, Max-v.-Eyth-Straße"
tmp-25,48.13257745,11.615410858,"Five Rings, München"
de:09177:3490,48.221021,11.802605,"Neufinsing, Rathaus"
de:09175:3956,48.197093,11.794987,"Pliening, Ludwigstraße"
de:09175:3954,48.188147,11.776365,"Landsham, Gh.Königer"
de:09175:3952,48.184853,11.77314,"Landsham, Abzw. Grub"
de:09182:43241,47.89189,11.724676,Holzkirchen Autobahnmeisterei
de:09182:43232,47.875612,11.705057,Holzkirchen Miesbacher Str.
de:09182:43231,47.877088,11.701293,Holzkirchen Marktplatz
de:09182:43849,47.875745,11.699892,Holzk. Tölzer Str. / Verein 50 Plus
de:09182:43822,47.872666,11.696604,Holzk. Tölzer- / Guffertstr.
de:09182:43228,47.870767,11.694295,Holzk. Burgstallerstr.
de:09182:69297,47.866115,11.690729,Holzkirchen Moarhölzl
de:09182:43243,47.84749,11.679042,Großhartpenning Kirche
de:09173:9632,47.805942,11.651392,Sachsenkam HAWE
de:09173:9631,47.784621,11.62411,Reichersbeuern Allgau
de:09173:9669,47.780414,11.613456,"Reichersbeuern, Am Kranzer"
de:09173:9318,47.759747,11.577335,"Bad Tölz, Maxlweiher"
osm:w28472865,47.7615109750995,11.574343469228005,P19
osm:w43843899,47.75949851680827,11.571949596032676,P20
de:09173:9316,47.761505,11.567471,"Bad Tölz, Brauerei"
de:09173:9317,47.761812,11.560312,"Bad Tölz, Maierbräugasteig"
tmp-26,47.7610641,11.5582933,Bad Tölz
osm:w43338231,48.19273855520771,11.860159223093632,P+R Münterstraße
de:09175:3971,48.191015,11.868218,"Markt Schwaben, Rathaus"
de:09175:4038,48.185883,11.869323,"Markt Schwaben,Graf-Siegh.-Weg"
de:09174:7315,48.29945,11.576338,"Inhausermoos, Kanalweg"
de:09174:6864,48.304099,11.572412,Maisteig
de:09178:2692,48.343265,11.570561,"Großnöbach, Kreuzung"
de:09178:2694,48.350017,11.563797,Unterbruck
tmp-27,48.3504204,11.5615861,Fahrenzhausen
de:09183:6285,48.19856,12.361348,"Aschau, Siedlung"
de:09183:6284,48.198812,12.370969,Thann bei Aschau
osm:w476289191,48.202457106716835,12.407689392117591,P+R Waldkraiburg
de:09183:80489,48.208146,12.416325,"Waldkraiburg, Alter Bahnhof"
de:09183:80822,48.209846,12.429171,"Waldkraiburg, Föhrenw. Staatss"
de:09183:80830,48.21324,12.446625,"Waldkraiburg, Rausching"
de:09183:80856,48.247684,12.473898,"Mettenheim, Abzw."
de:09183:6582,48.246141,12.480142,Ecksberg
de:09183:6576,48.241564,12.524033,"Mühldorf a.Inn, Stadtplatz"
tmp-28,48.2405007,12.5250991,Mühldorf a. Inn
de:09183:80962,48.240433,12.523566,"Mühldorf a.Inn, Grundschule"
tmp-29,48.197888,12.3516386,Aschau am Inn
de:09772:5402,48.400558,10.596698,"Zusmarshausen, Marktplatz"
de:09772:5405,48.403725,10.599069,"Zusmarshausen, Schulzentrum"
osm:w384156219,48.40901927014926,10.599997966986479,P+R
osm:w241978735,48.40189957547056,10.879157177572313,Augsburg Nord P+R
de:09761:404,48.397952,10.881634,"Augsburg, Alpenhof"
de:09761:409,48.393281,10.881715,"Augsburg, Eschenhof"
de:09761:529,48.392703,10.880943,"Augsburg, Bleicherbreite"
de:09761:421,48.388503,10.881356,"Augsburg, Zollernstraße"
de:09761:644,48.387883,10.881167,"Augsburg, Sanderstift"
de:09761:403,48.385872,10.880709,"Augsburg, Bärenwirt/DRvS"
de:09761:543,48.382203,10.880494,"Augsburg, Drentwettstraße"
de:09761:407,48.378904,10.881904,"Augsburg, Wertachbrücke"
de:09761:401,48.37561,10.88326,"Augsburg, Plärrer"
osm:w28568707,48.37537848024959,10.882112210862143,Plärrergelände P+R
de:08425:2105,48.496477,10.119064,Langenau Martinskirche
de:08425:2094,48.496174,10.117312,Langenau Flötzbachstraße
de:08425:2091,48.494388,10.112452,Langenau Albecker-Tor-Straße
de:09761:410,48.384852,10.887896,"Augsburg, Dieselbrücke"
de:09761:215,48.38249,10.893474,"Augsburg, MAN"
de:09761:233,48.379476,10.89846,"Augsburg, Haindl"
de:09761:228,48.377388,10.900733,"Augsburg, Stephingerberg"
de:09761:567,48.373462,10.901487,"Augsburg, Klinik Vincentinum"
de:09761:131,48.369452,10.901523,"Augsburg, Barfüßerb./Brechthaus"
de:09761:697,48.365441,10.904128,"Augsburg, City-Galerie/VHS"
tmp-30,48.3668041,10.8986971,Augsburg
de:09779:6621,48.838361,10.847471,"Monheim, Abzw. Wemding"
de:09779:6547,48.816131,10.83017,"Itzing, B2"
de:09779:6552,48.801571,10.822534,Bergstetten
de:09779:6527,48.744156,10.776891,"Donauwörth, Schöttlehof"
osm:w257988246,48.66084909740688,10.825540074480577,P+R-Parkplatz
osm:w25476732,48.65903469039142,10.825735268667083,P+R-Parkplatz
osm:w573257452,48.59381735401306,10.836878077049086,P+R West
osm:w26396015,48.57280279990504,10.842679068089168,P+R-Parkplatz
osm:w23423167,48.54751982822704,10.847667083288579,P+R-Parkplatz
osm:w458052535,48.5462172709191,10.84882153670506,P+R-Parkplatz
osm:n2096113158,48.522751,10.8319297,Pendlerparkplatz Biberbach
de:09772:4323,48.514779,10.84059,"Erlingen, Herdmähderweg"
de:09772:4206,48.497352,10.860605,"Langweid, Lechwerksiedlung"
osm:w638969994,48.44527596671276,10.874326221919418,P+R-Parkplatz
osm:w33912553,48.39533324909456,10.91621215607622,P+R-Platz Hammerschmiede
tmp-31,48.1212042,11.4299784,Gräfelfing
de:09363:169,49.673432,12.150972,Weiden Schweiger-/Frauenrichter Str.
de:09363:166,49.672828,12.149184,Weiden Ackerstraße
de:09363:165,49.67213,12.144028,Weiden Stockerhutweg
de:09363:164,49.672229,12.140578,Weiden Kaserne
osm:w233419304,49.5342313766155,12.13310456741664,P+R-Parkplatz
osm:w120009351,49.041903603036744,12.097959244337071,Pendlerparkplatz
de:09375:16033,49.040846,12.094459,Neukareth
de:09362:16010,49.029633,12.080131,Rgbg. Pfaffensteiner Brücke
osm:w432820272,49.01753687475519,12.066880133103561,P+R Prüfening
de:09375:20003,48.980793,12.062048,Pentling Hölkeringer Straße
tmp-32,48.2242434,11.6715263,Ismaning
de:09274:3172,48.602315,12.248583,"Oberahrain, Schule"
de:09274:3171,48.598982,12.240327,"Ohu, Siedlung"
osm:w243882292,48.58527199546383,12.188929543184235,P+R-Parkplatz
osm:w200512369,48.53249895728573,12.070776834353664,P+R-Parkplatz
de:09178:5964,48.480658,11.991458,"Moosburg Nord, Ausfahrt A 92"
osm:w308359792,48.45052312727614,11.962457945754663,Pottenau Nord
osm:w200418931,48.44485673863219,11.966447536859457,P+R-Parkplatz
de:09162:510,48.167151,11.59089,Dietlindenstraße
de:14511:30152,50.838734,12.906383,"Chemnitz, Leipziger Str"
de:14511:30452,50.838603,12.900131,"Chemnitz, Beyerstr"
de:14511:30149,50.836833,12.895109,"Chemnitz, Franz-Mehring-Str"
de:14511:30148,50.835846,12.89113,"Chemnitz, Erzbergerstr"
de:14511:30543,50.835086,12.887204,"Chemnitz, Kochstr"
de:14511:30147,50.83394,12.883916,"Chemnitz, Zinzendorfstr"
de:14511:30146,50.833656,12.88035,"Chemnitz, Rudolf-Krahl-Str"
de:14511:30145,50.832709,12.874547,"Chemnitz, Waldenburger Str"
de:14511:30151,50.832221,12.860443,"Chemnitz, Weideweg"
osm:w141838148,50.72779067346644,12.782588627347026,P+R-Parkplatz
de:14524:10439,50.671009,12.527671,"Wilkau-Haßlau, Haara Autobahnbrücke"
de:14523:798,50.433731,12.103307,"Taltitz, Talsperre Pirk"
osm:w711096916,50.2917333858935,11.810154406617562,P+R-Parkplatz
osm:w736412658,50.169314086684395,11.744485297243818,P+R-Parkplatz
de:09462:22259,49.96332,11.604661,Bayreuth Th.-Schmidt-Str. I
de:09462:22511,49.938772,11.604679,Colmdorf
osm:w4628248,49.38260931600047,11.20339825129335,P+R-Parkplatz
de:09576:8350,49.26213,11.212574,Allersberg (Rothsee)
osm:w25507873,48.99754426413918,11.375165157014202,P+R-Parkplatz
osm:w291380965,48.99413804293598,11.375136287536465,P+R-Parkplatz
osm:w25507874,48.9925841787263,11.376792703236998,P+R-Parkplatz
tmp-33,48.2101744,11.6203587,"Hans-Jensen-Weg, München"
de:09161:846,48.7471,11.434359,"IN, St.Anton/Bahnhofstraße"
de:09161:7984,48.751353,11.432445,"IN, St. Markus"
de:09161:7988,48.753141,11.440162,"IN, Asamstraße"
de:09161:581,48.756162,11.444186,"IN, Pettenkoferstraße"
de:09161:7422,48.754314,11.44963,"IN, Pionierkaserne"
de:09178:2860,48.352733,11.764076,"Flughafen, Besucherpark"
tmp-34,48.3477661,11.8133785,"München Flughafen, Oberding"
de:09464:63,50.322909,11.916422,"Karolinenstr.,Hof (Saale)"
de:09464:64,50.322296,11.914697,"Hof (Saale), Lessingstr."
de:09464:179,50.321659,11.913448,"Schießgraben,Hof (Saale)"
osm:w391546897,50.321125169263574,11.90456696415041,P+R-Parkplatz
de:09464:78,50.316881,11.896722,"Hof (Saale), Graf-Stauffenberg-Str."
de:09464:77,50.315172,11.887748,"Hof (Saale), Kasernen"
de:09464:76,50.313405,11.882798,"Hof (Saale), Hohensaas"
de:09464:72,50.311168,11.87465,"Hof (Saale), Quellitz B15"
de:09475:9209,50.296611,11.821066,"Föhrenreuth, Abzw"
de:09162:9980,48.164539,11.586426,Ungererstr.
de:09162:500,48.161962,11.586497,Münchner Freiheit
de:09162:108,48.159242,11.585402,Hohenzollernstraße
de:09162:80,48.156521,11.584,Giselastraße
de:09162:36,48.155173,11.583461,Georgenstraße
de:09162:1192,48.151955,11.581934,Siegestor
de:09162:70,48.150067,11.581,Universität
de:09162:245,48.146836,11.579554,Theresienstraße Ost
de:09162:124,48.14502,11.578682,Von-der-Tann-Straße
de:09162:8008,48.138252,11.584566,Maximilianstraße
de:09261:124,48.539052,12.124993,"Landshut, Querstraße"
de:09261:483,48.538915,12.096336,"Landshut, Prof.-Schott-Straße"
de:09177:3501,48.354578,11.831863,"Schwaig (ED), Nord"
osm:w447866516,48.353130350114306,11.832835380880827,Parkhaus
de:09177:3497,48.351927,11.830848,"Schwaig (ED), Eichenstraße"
de:09177:3504,48.347426,11.829016,Schwaigerloh
osm:w367080459,48.343806187820164,11.83041461708981,Parkservice Badberger
de:09177:3499,48.339837,11.837109,"Schwaig (ED), Mitte"
de:09177:3498,48.335717,11.84161,"Schwaig (ED), Hochstr."
de:09177:3509,48.326018,11.844152,"Oberding, Markt"
de:09372:1173,49.217174,12.66621,"Cham, Lucknerstr."
osm:w154994756,49.21517787892257,12.669198227052094,P3 Altstadt Süd II
de:09372:52543,49.213384,12.66877,"Cham, Stadellohe"
de:09372:1175,49.206353,12.666641,"Cham, Janahof (Mexx)"
de:09372:1244,49.203013,12.664116,"Cham, Janahof, McDonalds"
de:09372:1176,49.202174,12.662796,"Cham, Abzw. Altenmarkt"
de:09372:50707,49.18933,12.65446,"Cham, Höfen"
de:09372:50702,49.139442,12.650821,"Traitsching,Sattelpeil.  Abzw"
de:09372:50701,49.127951,12.652888,"Traitsching, Trebersdorf"
de:09372:50651,49.123195,12.650453,"Traitsching, Kohhof Abzw"
de:09372:50650,49.118539,12.650148,"Traitsching, Unterbühl"
de:09372:50649,49.11176,12.648082,"Traitsching, Reisach P. Jägerh"
de:09372:3454,49.105914,12.65083,Auhof bei Loitzendorf
de:09278:3581,49.080926,12.63953,Haidhof-Au
de:09278:11488,48.774482,12.652268,"Strähberg, Hauptstraße"
de:09278:2676,48.772961,12.653876,"Strähberg, Abzw Hienhart"
osm:w520388545,48.688601697174704,12.677073165875068,P+R Parkplatz
de:09279:6854,48.634555,12.708826,Brunnhof
de:09279:3379,48.595899,12.718465,Straßhaus
de:09279:3380,48.590558,12.718905,Kugl Abzw.
de:09279:6154,48.553907,12.733502,Langgraben
de:09277:6153,48.543257,12.738326,Memberg
de:09277:6151,48.517861,12.744318,Kenoden
de:09277:81534,48.506917,12.741363,Straß (Malgersdorf)
de:09277:6150,48.500632,12.743141,"Altgmain, Abzw"
de:09277:6149,48.492322,12.736907,Neugmain
de:09277:6148,48.478288,12.73494,Saliter
de:09277:81674,48.473881,12.732514,Eggerding (Ndb)
de:09277:6147,48.468015,12.729101,Ruderfing
de:09277:6141,48.426245,12.750552,Untereschlbach
de:09277:80750,48.406659,12.778418,Gern-Altenburg
de:09277:81699,48.397874,12.767477,"Eggenfelden, Gymnasium (Herzog-Ludwig-Str.)"
de:09277:6551,48.394719,12.768061,"Eggenfelden, Gymnasium"
de:09277:6061,48.390698,12.764881,Tiefstadt
de:09277:6062,48.388074,12.762608,Niederndorf bei Eggenfelden
de:09277:6063,48.379286,12.758413,Hetzenberg
de:09277:6064,48.37191,12.758278,Steinbach bei Eggenfelden
de:09277:6066,48.358882,12.748298,Endach
de:09277:6070,48.325809,12.743276,Büchel bei Mitterskirchen
de:09171:1899,48.316012,12.738811,"Schöftenhub, Abzw. Arbing"
de:09171:1229,48.299701,12.730906,Fuchshub
de:09171:1230,48.289738,12.724304,Reischach
de:09171:1231,48.279074,12.711476,Hochmühl
de:09171:1232,48.27349,12.71153,Brandmühl
de:09171:1233,48.264431,12.713102,Kager bei Neuötting
de:09171:1422,48.247995,12.682918,"Neuötting, Innbrücke"
de:09171:1424,48.24422,12.681373,"Neuötting, Kruse"
de:09171:1421,48.233242,12.689153,"Neuötting, Hallenbad"
de:09171:1429,48.233092,12.683835,"Altötting, Berufsschule"
de:09171:1442,48.228472,12.679055,"Altötting, Michaelifriedhof"
tmp-35,48.2268085,12.6757914,Altötting
de:08415:29044,48.590356,9.183648,Walddorf G.-Werner-Sch.
de:08415:29042,48.589411,9.174584,Walddorf Jahnstr.
de:08115:4792,48.603764,9.054246,Weil i. S. Weißer Stein
de:08115:4791,48.615471,9.024655,Holzgerl. Schaichhof
de:08115:4206,48.636122,9.006132,Holzgerlingen Abzw.
osm:w343914636,48.638690547788094,9.007143705430195,P+R-Parkplatz
de:08115:6525,48.644201,9.008431,Holzgerlingen Hülben
de:08115:4694,48.673152,9.011306,Böbl. Schönbuchstr.
de:08115:4703,48.676509,9.010668,Böbl.E.-Bolz-Str.(O)
de:08115:3128,48.677352,9.011063,Böblingen Tübinger Str.
de:08115:6744,48.679677,9.010749,Böbl. Stettiner Str.
de:08115:3126,48.683775,9.008117,Böbl. Parkstr. (Landratsamt)
de:08115:3105,48.684938,9.010102,Böblingen Elbenplatz
tmp-36,48.684969,9.0113444,Böblingen
de:08111:125,48.769758,9.195703,Stuttgart Payerstraße
de:08111:126,48.766223,9.201147,Geroksruhe
de:08111:6127,48.761231,9.199826,Stuttgart Stelle
osm:w327651361,48.752906813676795,9.192779472145153,P+R Ruhbank
de:08111:2564,48.756269,9.188364,Fernsehturm
de:08111:2565,48.753367,9.181303,Königsträßle
de:08111:6340,48.750062,9.172087,Stuttgart Zahnradbahnhof
de:08111:6165,48.748776,9.168583,Stuttgart Degerloch
de:08111:6163,48.74822,9.167236,Stuttgart Degerloch ZOB
de:08111:2594,48.746419,9.163373,Stuttgart Degerloch Albstraße
de:08111:6572,48.729748,9.167137,Stuttgart Weidachtal
de:08111:6580,48.713794,9.163579,Fasanenhof Abzw.
osm:w38673607,48.70470607911902,9.128265691878461,P+R-Parkplatz
osm:w42723036,48.69645339174867,9.019027278220069,S-Bahn Goldberg
de:08115:3245,48.698594,9.003437,Sindelf. Tüb. Allee
de:08115:4803,48.701499,9.004479,Sindelfingen IKEA
de:08115:3201,48.703871,8.99926,Sindelfingen
de:08115:2210,48.70575,8.994265,Sindelfingen Daimlersteg
de:08115:4624,48.706586,8.989387,Sindelf. Calwer Br.
de:08115:4641,48.704742,8.98221,Sindelf. Schoßhöfe
de:08115:6746,48.702715,8.981886,Sind. MB Tor XVI
tmp-37,48.7022676,8.984433,"Benzstraße, Sindelfingen"
tmp-38,48.4577715,9.9721975,"Eiselauer Weg, Ulm"
de:08426:6640,48.139457,9.807716,Herrlishöfen Kapelle
osm:w98681118,48.426308648661816,9.957369487900756,P40
tmp-39,48.4221445,9.9524004609,"Universitätsklinikum Ulm, Ulm"
de:08415:24318,48.513773,9.154183,Wannweil Schulstr.
de:08415:24312,48.512684,9.156537,Wannweil Sigelstuben
de:08415:24324,48.511619,9.158782,Wannweil Richard-Burkhardt-Str
de:08415:24311,48.508465,9.162708,Wannweil Albblick
de:08415:29203,48.501751,9.172257,Betzingen Wannweiler Str.
de:08415:29255,48.500412,9.176228,Betzingen Rathaus
de:08415:24435,48.499739,9.178267,Betzingen Mitte
de:08415:24003,48.499204,9.180153,Betzingen Hoffmannstr.
de:08415:29209,48.4974,9.184798,Betzingen Steinachstr.
de:08415:29259,48.496072,9.191257,Reutlingen Tüb.Str./Bosch
de:08415:29192,48.494542,9.19388,Reutlingen Bosch
de:08415:24471,48.491477,9.191867,Reutlingen Bösmannsäcker RSB
de:08415:22005,48.49256,9.201758,Reutlingen Westbahnhof
de:08415:28226,48.488399,9.214271,Reutlingen Ledergraben
de:08415:28200,48.486452,9.22038,Reutlingen Am Echazufer
de:08415:29101,48.484278,9.223578,Reutlingen Albstr.
osm:w204187413,48.48289862200552,9.22939817475776,P+R-Parkplatz
de:08415:28201,48.482135,9.231627,Reutlingen Südbahnhof
de:08415:29074,48.468444,9.231726,Pfullingen Achalmstraße
de:08415:29084,48.465739,9.230567,Pfullingen Friedhof
de:08415:29081,48.458972,9.232687,Pfullingen Entensee
tmp-40,48.4259447,9.2753877,"Holzelfingen, Lichtenstein"
de:08415:29077,48.465001,9.231573,Pfullingen Gartenstraße
osm:w47920650,48.49825912802261,9.211738581648998,Bahnhof
de:08415:24316,48.49759,9.204543,Reutl. Friedhof U. d. Linden
de:08415:24315,48.497793,9.199557,Reutl.-Emil-Adolff-Straße
tmp-41,48.5144104,9.1540193,Wannweil
de:08415:29336,48.494691,9.208801,Reutlingen Hbf/U.d.Linden
de:08415:29335,48.494584,9.210058,Reutlingen Metzgerstr./Hbf
de:08415:29334,48.495096,9.210427,Reutlingen Hbf/Listplatz
de:08415:22006,48.49643,9.20951,Reutlingen Hauptbahnhof
de:08415:28253,48.560394,9.263185,Riederich Mittelstädter Str.
de:08415:28254,48.559847,9.268584,Riederich Mitte
de:08415:28321,48.56169,9.268377,Riederich Stuttgarter Straße
de:08116:4316,48.57116,9.268548,Bempfl. Rathaus
de:08116:4490,48.570363,9.271341,Bempflingen Schule
de:08116:2927,48.627834,9.332148,Nürtingen Neckarbrücke
osm:w406658139,48.67188719118524,9.372665070643965,P+R-Parkplatz
de:08116:4223,48.706378,9.455218,Reichenbach (F) Weberei
de:08116:5887,48.707244,9.464003,R'bach Filsstr. (Bf)
osm:w418091614,48.71572715408765,9.52690135519275,P+R-Parkplatz
osm:w221608905,48.700662865074996,9.651539417885749,P+R-Parkplatz
de:08117:3006,48.692724,9.677371,Göppingen Sankt Pauls Kirche
de:08117:25,48.643044,9.789813,Kuchen Gerokweg
de:08117:13,48.635778,9.800296,Kuchen Löwen
de:08117:12,48.633451,9.803512,Kuchen Moltkestr.
de:08117:11,48.629224,9.81396,Geisl.(St) Bruckwiesen
de:08117:10,48.627609,9.81961,Geisl.(St) Adler Altenstadt
de:08117:9,48.626445,9.822907,Geisl.(St) Krone/Altenstadt
de:08117:31,48.624569,9.827506,Geislingen Sternplatz ZOH
de:08117:7,48.623922,9.832178,Geisl.(St) Wilhelmstraße
de:08117:6,48.623215,9.835456,Geisl.(St) Nel Mezzo
tmp-42,48.6218033,9.8372796,Geislingen an der Steige
de:08116:6846,48.590688,9.310382,Großbettlingen Mörikestraße
de:08116:5901,48.591051,9.314371,Großbettl. Albstr.
osm:w30060881,48.65371830435021,9.407559102217862,Rübholzparkplatz
de:08116:4383,48.643489,9.436074,Kirchheim (T) Nägelestal
de:08116:4384,48.64816,9.442686,Kirchheim (T) Steingaustraße
tmp-43,48.64864475,9.4455277934,"Nanz Center Kirchheim, Kirchheim unter Teck"
de:08425:2511,48.538338,9.923087,Lonsee Seeblick
de:08425:2502,48.533074,9.926501,Halzhausen Am Kiesgraben
de:08425:2501,48.532497,9.924309,Halzhausen Ortsmitte
de:08425:2486,48.50215,9.919664,Neudenkental
tmp-44,48.4656356,9.9431286,"Dornstadt, VVG der Gemeinde Dornstadt"
de:08116:4333,48.644991,9.453762,Kirchheim (T) K.-W.-Halle
de:08116:3958,48.641613,9.453026,Kirchheim (T) Gaiserplatz
de:08116:4268,48.639648,9.453897,Kirchheim (T) Polizeiwache
de:08116:6705,48.637808,9.455748,Kirchh. Hohenbolweg
osm:w229212508,48.69644424609505,9.284136534411443,P+M Esslingen
osm:w26738234,48.737518869690234,9.30568829730464,Parkhaus Pliensauturm
de:08116:4022,48.739281,9.31075,Essl. Hochschule
de:08116:4095,48.73992,9.313652,Esslingen Finanzamt
de:08116:4094,48.742124,9.316428,Essl. Katharinenst.
de:08116:4063,48.741164,9.320839,Essl. Lenaudenkmal
de:08116:4096,48.740489,9.325294,Essl. Hölderlinweg
de:08116:4028,48.740981,9.326714,Essl. Hirschl.kopf
de:08116:4130,48.743848,9.325788,Sankt Bernhardt Flandernstr.
de:08116:3998,48.744257,9.322842,Essl. Hochschulzentr
de:08425:2543,48.546421,9.893955,Urspring Am Hägle
de:08425:2558,48.573353,9.877282,Amstetten Hauptstraße
osm:w300625932,48.57764247194247,9.87375601484551,P+R-Parkplatz
osm:w680729811,48.57925775912572,9.872389390957279,P+R-Parkplatz
de:08425:3956,48.588371,9.865415,Amstetten GP Bus Geislingen
de:08117:96,48.604483,9.842948,Geisl.(St) Friedhof
de:08117:1,48.613357,9.84223,Geisl.(St) Stadtkirche
de:08117:260,48.614539,9.841125,Geisl.(St) Gartenstraße
de:08117:181,48.616255,9.839526,Geislingen (St) Uhlandschule
de:08117:261,48.617728,9.838044,Geisl.(St) Jahnhalle
de:08117:8,48.624598,9.828135,Geisl.(St) Sternplatz ZOH
de:08117:9896,48.702086,9.635033,Göppingen BSZ Öde
de:08117:4907,48.710433,9.637486,Göppingen Eugenstr.
tmp-45,50.5424486,8.990259,Laubach
de:06531:14952,50.5423,8.99035,Laubach Marktplatz
de:06531:19101,50.541392,8.98649,Laubach Busbahnhof
de:06531:19220,50.521981,8.975229,Laubach-Ruppertsburg Abzw Laubach-Friedrichshütte
de:06531:19219,50.519452,8.964626,Laubach-Ruppertsburg Bahnhof
de:06531:19218,50.517087,8.959595,Laubach-Ruppertsburg Kreuzplatz
de:06531:19217,50.506979,8.933397,Hungen-Villingen Kreuzstraße
de:06531:19190,50.476721,8.903386,Hungen Alte Molkerei
de:06531:14621,50.475438,8.9009,Hungen Stadtmitte
de:06531:19133,50.4748,8.898,Hungen Friedhof
de:06531:14628,50.470923,8.897402,Hungen Römerstraße
de:06531:11483,50.4601,8.89292,Hungen-Inheiden Bahnhof
de:06531:19135,50.448511,8.887918,Hungen-Trais-Horloff Bundesstraße
de:06531:19216,50.438143,8.884311,Hungen-Utphe Sportplatz
osm:w380677875,49.09340505133744,10.210977350607754,P+M
osm:w282865821,48.95534571560556,10.182199783473473,P+R-Parkplatz
osm:w26335711,48.690749001256656,10.215340200850655,P+R
de:08421:1192,48.450912,10.023294,Kesselbronn
de:08421:1191,48.443177,10.017823,Haslach
de:08421:1082,48.425857,10.006927,Ulm Eichberg Nord
de:08421:1081,48.422966,10.00549,Ulm Eichberg
de:08421:1079,48.42023,10.004079,Ulm Eichenplatz
de:08421:1088,48.419067,10.00284,Ulm Eichengrund
de:08421:1061,48.414202,10.004196,Ulm Albecker Steige
de:08421:1060,48.412956,10.001824,Ulm Safranberg
osm:w188237211,48.41144165451336,10.010888300527405,Donauhalle (3)
de:08421:1059,48.411072,10.005067,Ulm Steinhövelstraße
de:08421:1048,48.409175,10.002166,Ulm Örlinger Straße
de:08421:1012,48.405532,9.99268,Ulm Keplerstraße
de:08421:1022,48.404482,9.988529,Ulm Ensingerstraße
de:08421:1020,48.40425,9.98746,Ulm Karlstraße
de:08421:1019,48.403427,9.985915,Ulm Stadtwerke
de:08421:1010,48.400874,9.986841,Ulm Theater
de:08116:4224,48.707997,9.464704,Reichenbach (F)
de:08116:2994,48.642723,9.33081,Bunsenstr.(ObEns)
de:08415:28258,48.560234,9.2687,Riederich Rathaus
de:08415:29123,48.501376,9.211846,Reutlingen Güterbahnhof
de:08415:24473,48.499555,9.21084,Reutlingen Burkh.u.Weber-Str.
de:08415:24481,48.496787,9.208621,Reutlingen Hbf./ Nord
tmp-46,48.4919508,9.2114144,Reutlingen
de:08119:5405,48.837066,9.337538,Waiblingen Salierstr
de:08119:3685,48.838101,9.339946,Waiblingen Bajastr.
osm:w22929945,48.81510178833199,9.31969774292016,P+R Rommelshausen
osm:n390333858,48.8115724,9.3506877,P+R-Parkplatz
osm:w34063434,48.81231517201727,9.352779428953657,P+R Stetten-Beinstein
de:08119:6838,48.814788,9.366159,Endersbach Beim Kreisel
de:08119:3767,48.814315,9.370749,Endersb. Schornd. Str.
osm:w4921155,48.81087068473453,9.418968389438314,P+R
de:08119:3746,48.807926,9.440692,Geradstetten Kelterwiesenbach
de:08119:3714,48.804003,9.479176,Winterb. Remsbrücke
osm:w702216003,48.798710372395774,9.48287153356956,P+R-Parkplatz
de:08119:4083,48.798121,9.479203,Winterb. Bahnunterf.
de:08119:3774,48.791612,9.467974,Winterb. Engelb. Waldorfschule
de:08119:4082,48.79089,9.466905,Winterbach Engelberg
de:08119:4080,48.777703,9.461497,Winterbach Goldboden
de:08116:4494,48.760384,9.490683,Thomashardt Kreuzung
de:08117:7674,48.746354,9.516132,Ebersb.(F) Büchenbr. Kgs-eiche
de:08117:9823,48.724948,9.550367,Uhingen Diegelsberg
de:08117:2035,48.714043,9.566097,Uhingen Seestr.
de:08117:1502,48.709402,9.575691,Uhingen Schmiedefelder Str.
de:08117:2011,48.706515,9.584764,Uhingen Uditorium
de:08117:2043,48.705857,9.584871,Uhingen Uditorium
de:08117:65056,48.704736,9.585788,Uhingen Kirchstr./Rathaus
de:08117:65100,48.690263,9.739768,Salach Gesundheitshaus/Rathaus
de:08117:6004,48.690352,9.737351,Salach Hauptstr. Marktplatz
de:08117:156,48.689397,9.737064,Salach
de:08117:7605,48.686159,9.734405,Salach Querstr.
de:08117:7608,48.688265,9.726347,Salach Briefzentrum
de:08116:6725,48.704582,9.416473,Wernau Bruckenwasen
osm:w116522243,48.71398858481076,9.411174539481603,P+R-Parkplatz
de:08116:4060,48.713492,9.40016,Deizisau Ploch. Str.
osm:w560389124,48.72031140000001,9.3833219,P+R
osm:w697563435,48.73928967962478,9.277986891815123,P+R-Parkplatz
de:08116:6842,48.741052,9.273758,Brühl Palmenwaldstr.
de:08116:4017,48.74181,9.270021,Weil
de:08111:2534,48.762072,9.260795,Otto-Hirsch-Brücken
osm:w25460407,48.76257513556109,9.266287717155317,P+R Obertürkheim
tmp-47,48.776227,9.2517750234,"Daimler AG Firmenangehörigengeschäft Werk Untertürkheim, Stuttgart"
de:08119:5425,48.824754,9.269563,Schmiden Stauferstr.
de:08111:2382,48.820691,9.245102,Stuttgart Kleiner Ostring
de:08111:2380,48.818692,9.242011,Auf der Gans
de:08111:6320,48.815155,9.235355,Stuttgart Obere Ziegelei
de:08111:321,48.812451,9.228591,Stuttgart Gnesener Straße
de:08111:263,48.808073,9.204237,Glockenstraße
de:08111:262,48.806867,9.19653,Stuttgart Rosensteinpark
de:08111:6261,48.807695,9.188795,Stuttgart Löwentor
de:08111:158,48.810972,9.177261,Maybachstraße
de:08111:6157,48.813634,9.169185,Stuttgart Feuerbach
de:08111:6179,48.813256,9.157731,Kerschenst. Schule
de:08111:853,48.812327,9.154857,Stuttgart Linzer Straße
de:08111:152,48.812167,9.135525,Stuttgart Feuerbach Pfostenwäldle
de:08111:147,48.807541,9.105342,Stuttgart Wolfbusch
de:08111:146,48.804257,9.101182,Stuttgart Bergheimer Hof
de:08111:145,48.802636,9.093241,Stuttgart Salamanderweg
de:08111:6794,48.803021,9.092208,Ernst-Reuter-Platz
de:08111:144,48.80263,9.087905,Giebel
de:08118:143,48.802447,9.082569,Breitwiesen (Gerl.)
de:08118:142,48.802204,9.076676,Gerlingen Rossbaum
de:08118:2300,48.802512,9.075724,Gerlingen Dieselstr.
de:08118:141,48.801275,9.072823,Gerlingen Siedlung
de:08118:149,48.800974,9.06746,Gerlingen Goethestraße
de:08118:2315,48.799429,9.064154,Gerlingen Schulstraße
tmp-48,48.7983947,9.0624386,Gerlingen
de:08125:1873,49.096228,9.324342,Oberheinriet Ortsmitte
de:08125:929,49.089792,9.323498,Unterheinriet Sportplatz
de:08125:872,49.086109,9.319796,Unterheinriet Ortsmitte
de:08125:869,49.085309,9.29635,Abstatt-Happenbach
de:08125:922,49.084786,9.294311,Happenbach Abzw. Abstatt
osm:w25946981,48.821158736407945,9.092664722015234,P+R Weilimdorf
tmp-49,48.82399005,9.0913889073,"Siemens, Stuttgart"
de:06435:26544,50.227896,9.346609,Bad Orb Rathaus
osm:w57947594,50.22973641623339,9.34717453495046,Parkplatz Bahnhof
de:06435:26865,50.229928,9.341864,Bad Orb Frankfurter Straße
de:09671:99191,50.088064,9.051173,"Alzenau, Meerhofsee"
de:09671:99187,50.088087,9.05456,"Alzenau, Elze"
de:09671:99196,50.087741,9.064756,"Alzenau, Sittinger"
de:09671:60750,50.086554,9.065394,"Alzenau, Feuerwehr"
de:09671:99185,50.084398,9.064675,"Alzenau, Karl-Amberg-Schule"
de:09671:99194,50.083482,9.066229,"Alzenau, Mühlweg/AOK"
de:09671:60840,50.083747,9.068798,"Alzenau, Prischoßstr."
de:09671:60800,50.083626,9.070568,"Alzenau, Wasserloser Str."
de:09671:99182,50.085084,9.073775,"Alzenau, Stadtmitte (Ersatzhaltestelle)"
tmp-50,50.085868,9.0813749,"Alzenau, Alzenau"
de:06440:23840,50.352255,9.049138,Ortenberg Wilhelm-Leuschner-Straße
de:06440:19476,50.342653,9.039444,Ortenberg-Selters Bleichenbacher Straße
de:06440:23849,50.331,9.04819,Ortenberg-Bleichenbach Bleichstraße
de:06440:23835,50.3281,9.04772,Ortenberg-Bleichenbach Wasenstraße
de:06440:19480,50.3257,9.04894,Ortenberg-Bleichenbach Bahnhofstraße
de:06440:11149,50.320807,9.051562,Ortenberg-Bleichenbach Bahnhof
osm:w293869728,50.3200961940584,9.05227507720211,P+R
de:06440:19482,50.308895,9.061778,Büdingen-Aulendiebach Abzweig Aulendiebach
de:06440:11150,50.297353,9.06675,Büdingen-Büches-Düdelsheim Bahnhof
de:06440:15739,50.290795,9.10839,Büdingen Alte Post
tmp-51,50.2924647,9.1106257,Büdingen
de:16052:152034,50.879013,12.078725,"Gera, Puschkinplatz"
de:16052:152248,50.893887,12.080372,"Gera, Straße des Bergmanns Ersatzhaltestelle"
de:16052:152007,50.896725,12.076839,"Gera, Grüner Weg"
osm:w113964572,50.87808148742171,11.63916821690864,Pendlerparkplatz
de:06636:206170,51.011248,10.160176,Herleshausen Hallenbad
de:06632:202073,50.864832,9.784473,Bad Hersfeld-Sorga Hermannshof
osm:w60903799,50.421153840174476,9.575193463327917,P+R-Parkplatz
osm:w279947564,50.179372042154824,9.11074039994993,P+R-Parkplatz
de:06435:22834,50.176665,9.114172,Hasselroth-Niedermittlau Berliner Straße
de:08416:10018,48.522818,9.050832,Tübingen Kelternplatz
de:08416:10039,48.52224,9.046098,Tübingen Hermann Hepper Halle
de:08416:10052,48.519396,9.043879,Tübingen Schwärzlocher Str. 45
osm:w192231442,48.51509514211362,9.055210362447985,Hauptbahnhof
de:08416:10710,48.515273,9.057102,Tübingen Hauptbahnhof/ B28
de:08416:10800,48.515475,9.0641,Tübingen Landestheater
de:08416:10826,48.514398,9.068511,Tübingen Hügelschule
de:08416:10816,48.513178,9.070334,Tübingen Schweickhardtstraße
de:08416:10801,48.512952,9.074682,Hotel Stadt Tübingen
osm:w370879449,48.692067160819086,9.171074027034788,P+R-Parkplatz
osm:n275139037,48.7458938,9.1628421,P+R Albstraße
de:08111:164,48.752229,9.172185,Stuttgart Karl-Pfaff-Straße
de:08111:163,48.75496,9.17471,Stuttgart Weinsteige
de:08111:162,48.759555,9.181725,Altenbergstaffel
de:08111:161,48.763754,9.180836,Neue Weinsteige 61
de:08111:6160,48.76794,9.183693,Stuttgart Bopser
de:08111:159,48.769746,9.185992,Dobelstraße
de:08111:6119,48.774044,9.186082,Stuttgart Olgaeck
de:08111:6075,48.776276,9.182911,Stuttgart Charlottenplatz
tmp-52,48.7784485,9.1829,Stuttgart
de:08111:154,48.810109,9.14988,Stuttgart Föhrich
de:08111:6180,48.811593,9.15898,Stuttgart Wilhelm-Geiger-Platz
de:08111:371,48.811919,9.169454,Stuttgart Tunnelstraße
de:08111:6113,48.809476,9.18328,Pragsattel
de:08111:314,48.808494,9.20589,Halden-/Pragstr.
de:08111:2252,48.807748,9.210759,Martinskirche
tmp-53,48.820297,9.2707765,"Fellbach, Fellbach"
de:08125:921,49.086886,9.273929,Untergruppenbach GETRAG
de:08125:813,49.089757,9.274602,Untergruppenbach Kirche
de:08225:5992,49.401061,9.069984,"Neckargerach, Marktplatz"
osm:n2378079029,49.3982639,9.0744349,P+R-Parkplatz
de:08225:310,49.383666,9.078787,"Guttenbach, Schleuse"
de:08225:309,49.365265,9.056509,"Binau, Gasthaus Sonneneck"
osm:n6611917091,49.3727869,9.0829696,P+R-Parkplatz
de:08225:281,49.368441,9.08786,"Binau, Abzw. Bahnhof"
de:08225:6730,49.362702,9.099566,"Diedesheim, Schifferdecker"
de:08225:31,49.318424,9.131959,"Neckarzimmern, Kirche"
de:08225:32,49.317868,9.134375,"Neckarzimmern, Rathaus"
de:08225:8223,49.31665,9.137394,"Neckarzimmern, Bahnhof"
de:08225:33,49.311186,9.146431,"Neckarzimmern, Steinbach"
de:08225:8222,49.303935,9.153994,"Haßmersheim, Bahnhof"
de:08225:8224,49.301972,9.15395,"Haßmersheim, Fähre (Bahnhof)"
de:08125:4570,49.290367,9.145478,Gundelsheim Böttingen
osm:w482729375,49.28198172487316,9.158540126108798,P+R-Parkplatz
de:08125:34558,49.248961,9.162996,Offenau Bachenauer Straße
de:08125:4558,49.246844,9.163103,Offenau Mitte
de:08125:34554,49.245296,9.163427,Offenau Saline
de:08125:4556,49.239983,9.165286,Offenau Siedlung
de:08125:428,49.23644,9.181483,Bad Fr-Jagstf. Abzw Duttenberg
de:08125:887,49.23505,9.193053,Jagstfeld Marienstraße
de:08125:519,49.231836,9.200617,Bad Friedrichshall Hbf
de:08125:1120,49.217937,9.211523,Bad Fr'hall-Kochendorf Bahnhof
de:08125:9245,49.200572,9.23292,NSU Viktorshöhe Kochend. Str.
de:08125:46088,49.193105,9.232166,Neckarsulm Stadtwerke
de:08125:79474,49.187504,9.237214,Neckarsulm Stadion
de:08121:31501,49.169776,9.224584,Heilbronn Kaufland (S-Bahn)
de:08121:83,49.166845,9.225958,Heilbronn Karl-Wüst-Brücke
de:08121:79,49.1606,9.226426,Heilbronn B27 (Kreuzenstraße)
de:08121:31001,49.149238,9.221557,Heilbronn Techn. Schulzentrum
de:08121:110,49.142187,9.21914,Heilbronn Marktplatz
de:08111:112,48.815782,9.177539,Sieglestraße
de:08111:111,48.81939,9.175482,Borsigstraße
de:08111:6465,48.82961,9.167155,Stuttgart Zuffenhausen
de:08111:95,48.84046,9.141993,Neuwirtshauskreuzung
de:08125:920,49.101933,9.260032,Donnbronn Donnbronner Höhe
de:08121:28,49.126599,9.223317,Heilbronn Hohenstaufenstr Ost
de:08121:279,49.129027,9.224782,Heilbronn Schmidbergstraße Ost
de:08121:179,49.129967,9.223048,Heilbronn Schmidbergstr West
tmp-54,49.1299155,9.2213025,"Schmidbergstraße, Heilbronn"
de:08111:2462,48.839508,9.14167,Stuttgart Neuwirtshausstraße
de:08111:7908,48.831023,9.167173,Stuttgart Burgunderstraße
osm:w685840632,48.82984243604612,9.16658253776826,P+R Zuffenhausen
tmp-55,48.8073925,9.1909583,"Pragstraße, Stuttgart"
de:08126:10124,49.175807,9.429948,Bretzfeld Steinsfeldstraße
de:08126:10122,49.175578,9.425968,Rappach Erlenweg
osm:w318712806,49.218955824891786,9.58790644105716,P+R-Parkplatz
de:08127:12798,49.170228,9.86007,Wolpertshausen Fernbus
de:08127:23262,49.168754,9.859855,Wolpertshausen Hörlebach Abzw
de:08127:93190,49.168601,9.857771,Wolpertshausen Industriegebiet
de:08127:23260,49.168325,9.847736,Wolpertshausen Schule
de:08119:5417,48.846047,9.35722,Korb Jahnstraße
de:08118:7651,48.920337,9.330307,Affalterbach Robert-Bosch-Str.
de:08118:7586,48.937694,9.266625,Marb.(N) Affalterbac
de:08118:63017,48.939907,9.262107,Marbach (N) H.-Hesse-Straße 6
de:08118:5372,48.940521,9.262304,Marbach Güntterstr.
de:08118:63020,48.941482,9.262008,Marbach (N) Ziegelstraße 6
osm:n3151671513,48.9433579,9.2652419,P+R-Parkplatz
de:08118:63021,48.941642,9.260202,Marbach (N) Cottaplatz
osm:w40858544,49.14827810230158,9.306976885947503,Gewerbegebiet Ellhofen
de:08125:1505,49.199462,9.232741,Neckarsulm Viktorshöhe/Unterf.
de:08125:31504,49.202256,9.228788,Neckarsulm Nord
de:08125:511,49.202168,9.227018,"Neckarsulm, Nord/AUDI Tor 6,Neckarsulm"
tmp-56,49.2024147,9.2231166718,"Audi AG, Werk Neckarsulm, Neckarsulm"
de:08118:3533,48.941724,9.259915,Marbach Krankenhaus
osm:w86845552,48.94383684297911,9.264356632678732,P+R-Parkplatz
de:08118:63025,48.942421,9.272114,Marbach (N) Krummenäcker-/Blankensteinstr.
de:08118:3517,48.941807,9.2922,Erdmannhausen Waage
de:08118:3563,48.937393,9.297743,Erdmannhausen Piemonteser Str.
de:08118:3602,48.923731,9.323426,Affalterb. Waage
de:08118:3601,48.922674,9.327387,Affalt. Klingenstr.
de:08119:5414,48.840513,9.352414,Korb A.-Leikam-Garten
tmp-57,48.8428996,9.3613032,Korb
de:08119:3701,48.808292,9.470803,Rohrbronn Abzw.
osm:w702205049,48.81041991620062,9.421030394127655,P+R-Parkplatz
tmp-58,48.83602985,9.3345355162,"Korber Höhe, Waiblingen"
osm:w279947565,50.17831827381132,9.10963950117767,P+R-Parkplatz
de:16067:167215,50.90655,10.63047,Leina (TWSB)
osm:w258463905,50.87564857104447,11.636309386286783,P+R-Parkplatz
de:16052:152005,50.90406,12.072152,"Gera, Duale Hochschule"
de:16052:152006,50.899864,12.073279,"Gera, Tinz"
de:09679:3210,49.76034,9.853027,Eisingen Abzweig
de:09677:29082,49.835918,9.572681,Eichenfürst
de:09677:28513,49.868903,9.603116,Hafenlohr Abzw. Windheim
de:09677:28581,49.870773,9.603835,Hafenlohr Rathaus
de:09677:27883,49.874119,9.602802,Hafenlohr Abzw. Holzgasse
de:09677:28103,49.87794,9.60096,Hafenlohr Fa. PAIDI
de:09677:29702,49.889708,9.594088,Rothenfels Friedhof
de:09677:28627,49.891884,9.592588,Rothenfels Spielplatz
de:09677:28577,49.899817,9.586264,Rothenfels Staustufe
de:09677:28576,49.909479,9.584665,Rothenfels (Ufr.) Am Gaiberg
de:09677:28575,49.930683,9.570768,Neustadt (Main) Gh. Engel
de:09677:28574,49.938136,9.57508,Neustadt (Main) Siedlung
de:09677:28273,49.986967,9.578511,Lohr (M.) Aloysianum
de:09677:29035,49.993949,9.570903,Lohr (M.) Parkdeck
de:09677:28461,49.995716,9.572106,Lohr (M.) Krankenhaus
tmp-59,49.9954978,9.5733619,Lohr am Main
de:09677:4615,49.995491,9.576562,Lohr (M.) ZOB
de:09677:28587,49.86899,9.603466,Hafenlohr Post
tmp-60,49.77551395,9.8712891485,Höchberg
de:14521:40353,50.53722,12.782236,"Schwarzenberg, Stadtschule EH"
de:14521:40326,50.535382,12.780628,"Schwarzenberg, Bermsgrüner Str EH"
de:14521:40703,50.540086,12.778912,"Schwarzenberg, Hofgarten"
de:14521:40699,50.545218,12.772193,"Schwarzenberg, Zum Eisenbahnmuseum"
de:14521:40700,50.550093,12.764827,"Schwarzenberg, Gewerbegebiet Schneeberger Str"
de:14521:40708,50.554425,12.758404,"Schwarzenberg, Neuwelt"
de:14521:40393,50.569011,12.725534,"Lauter, Lumbachhöhe"
de:14521:40080,50.590437,12.717369,"Aue, Alten- und Pflegeheim"
de:14521:40107,50.592513,12.713461,"Aue, Klinikum/Schwimmhalle"
osm:n270190723,49.3504548,11.09951,P+R Kornburg Schleife
de:08125:525,49.180382,9.223973,"Neckarsulm, Heilbronner Str. Süd,Neckarsulm"
de:08125:506,49.183547,9.224755,Neckarsulm Einkaufszentrum
de:08125:500,49.187216,9.224467,Neckarsulm Schwabenbräu
de:08125:501,49.189723,9.223812,Neckarsulm St. Paulus
de:09678:27417,49.987781,10.219702,Röthlein Siedlung
de:09662:75286,50.023317,10.233536,"Schweinfurt, Baggersee"
osm:w11014906,49.826499077451366,9.988522379799178,P+R-Parkplatz
de:09663:128,49.79986,9.954869,Würzburg Europastern
de:09663:383,49.798898,9.945779,Würzburg Schweinfurter Straße
de:09663:95,49.799414,9.941691,Würzburg Berliner Platz
de:09663:277,49.799588,9.940631,Würzburg Neutorstraße
de:09663:170,49.800208,9.936436,"Würzburg, Hauptbahnhof Ost"
de:09663:179,49.800799,9.935008,"Würzburg, Hauptbahnhof West"
osm:w24277704,49.7982076820159,9.922507185522047,Viehmarktplatz
de:09663:415,49.798063,9.921147,Würzburg Talavera
osm:w24653954,49.79902397498489,9.918762473126996,Talavera
de:09663:416,49.7975,9.919009,Wzbg. E.Talavera/Neunerplatz
de:09663:276,49.796932,9.917922,Würzburg Nautiland
de:09663:452,49.797587,9.915748,"Würzburg, Weißenburgstraße"
de:09663:151,49.797813,9.91255,Würzburg Fr.-Koenig-Gymn.
de:09663:150,49.797645,9.911148,Würzburg Friedrichstraße
de:09663:351,49.797773,9.909603,Würzburg Sedanstraße
de:09476:75611,50.438205,11.368324,Steinbach (a. Wald) Grundschule
de:09476:15523,50.431946,11.360616,Steinbach (a. Wald) Rathaus
de:09476:16388,50.390888,11.34839,Förtschendorf Ortsmitte
de:09476:15517,50.361103,11.321,Rothenkirchen Forstamt
de:09476:16035,50.355934,11.318629,Pressig Auto Service Center
de:09476:75699,50.352271,11.312062,Pressig Angerstr.
de:09476:75700,50.348379,11.302387,Pressig Waldstraße
de:16072:472047,50.359992,11.275907,Heinersdorf (Föritztal)
de:16072:472051,50.370011,11.243117,Jagdshof
de:16072:472181,50.354041,11.216756,"Sonneberg, Steinbach, Schule"
de:16072:472180,50.351733,11.211586,"Sonneberg, Steinbach, SBBS"
de:16072:472159,50.350812,11.209917,"Sonneberg, Köppelsdorf, Max-Planck-Straße"
de:09674:25712,49.9778,10.644416,Limbach Staustufe
de:09663:46,49.798509,9.954744,Würzburg Aumühle
de:09663:438,49.794473,9.951321,Würzburg  Waltherstraße
de:09663:54,49.788193,9.943506,Würzburg Süd
de:09663:365,49.787328,9.941817,"Würzburg, Südbahnhof/LVA"
de:09663:103,49.769009,9.937415,Würzburg Dallenbergbad
de:06412:1702,50.084375,8.698602,Frankfurt (Main) Hainer Weg
de:06412:1701,50.086835,8.691931,Frankfurt (Main) Sachsenhäuser Warte
de:06412:910,50.09171,8.691233,Frankfurt (Main) Südfriedhof West
de:06412:909,50.094253,8.690896,Frankfurt (Main) Brauerei
de:06412:1936,50.096919,8.691014,Frankfurt (Main) Darmstädter Landstraße Mitte
de:06412:908,50.100625,8.691479,Frankfurt (Main) Wendelsplatz
de:06412:60796,50.101714,8.690708,Frankfurt (Main) Lokalbahnhof/Hedderichstraße
de:06412:906,50.102847,8.690589,Frankfurt (Main) Lokalbahnhof/Textorstraße
de:06412:926,50.104666,8.689846,Frankfurt (Main) Affentorplatz
de:06412:905,50.105875,8.688119,Frankfurt (Main) Elisabethenstraße
de:06412:527,50.109996,8.687998,Frankfurt (Main) Schöne Aussicht
de:06412:522,50.11255,8.687996,Frankfurt (Main) Börneplatz
de:09663:306,49.80091,9.937478,"Würzburg, Parkhaus/Am Quellenbach"
de:09672:28264,50.298516,9.845446,Abzw. Mitgenfeld
de:09672:27020,50.320288,9.816448,Römershag Ort
de:09672:27021,50.319026,9.808264,Römershag Siedlung
de:09672:28206,50.316703,9.802111,Bad Brückenau Kissinger Str.
de:09672:27022,50.311294,9.793721,Bad Brückenau Siebener Sprudel
de:09672:28709,50.312298,9.790577,Bad Brückenau Leimbachstr.
tmp-61,50.3101036,9.7892824,Bad Brückenau
osm:w351900005,48.403864276764004,10.59883297831368,P+R-Parkplatz
tmp-62,48.399896,10.5957313,Zusmarshausen
tmp-63,48.4975016,10.1222024,Langenau
de:08135:1533,48.541187,10.233931,Niederstotzingen Rathaus
de:08135:1530,48.540063,10.227454,Niederstotzingen Pl. de Bages
de:08135:1542,48.538635,10.223511,Oberstotzingen Hirsch
de:08135:1548,48.538011,10.220582,Oberstotzingen Ulmer Straße
de:08425:3951,48.534591,10.208383,Asselfingen GP Bus Oberstotz.
de:08425:2271,48.529945,10.191495,Asselfingen
de:08425:2263,48.520408,10.172307,Rammingen Asselfinger Straße
osm:w28025364,48.63434971641527,9.556156936534189,Park- und Mitnahmeparkplatz Aichelberg
de:08116:2905,48.683253,9.254291,Neuh.(F) Industriegebiet West
de:08116:2159,48.681705,9.242038,Sielmingen Im Köller
de:08116:2030,48.680661,9.242083,Sielm. Alemannenstr.
de:08116:2031,48.676065,9.237825,Sielmingen Friedrichstraße
de:08116:2143,48.675329,9.237169,Sielmingen Möhringer Straße
de:08116:2144,48.669415,9.230818,Sielmingen Reutlinger Straße
de:08416:10903,48.499227,9.063157,Tübingen Waldhörnle
osm:n3544339845,48.452737,9.0577774,Park and Ride
de:08416:2120,48.449678,9.059564,Dußlingen Bürgerpark
de:08416:4446,48.418566,9.037887,Ofterdingen Krone
de:08416:4430,48.41552,9.034671,Ofterdingen Krone/BP
de:08416:4401,48.400946,9.014306,Bad Sebastiansweiler B27
de:08417:37566,48.269424,8.857002,Balingen Stingstraße
de:08417:30237,48.256704,8.8405,Endingen Krone
de:08417:37558,48.255939,8.839171,Endingen Brücke
de:08417:30255,48.255233,8.837033,Endingen Schömberger Straße
de:08417:30250,48.250077,8.817387,Erzingen Rössle
de:08417:30415,48.226809,8.784922,Dotternhausen Abzweigung
de:08417:30895,48.211259,8.75808,Schömberg Traube
de:08417:37542,48.211109,8.760083,Schömberg Marktplatz
de:08417:30842,48.24078,8.848558,Weilstetten Rottweiler Strasse
de:08416:4460,48.448636,9.059366,Dußlingen Blumenstr.
de:08116:2045,48.669124,9.23133,Sielmingen Friedhof
tmp-64,48.5408791,10.2332512,", Niederstotzingen"
de:09181:2607,48.120181,10.818025,Hurlach Raiffeisenbank
osm:w81468455,48.14189675031256,10.83189196770052,P+R-Parkplatz
de:09772:7575,48.174598,10.841147,"Lagerlechfeld, Siedlung"
de:09772:7576,48.178102,10.842558,"Lagerlechfeld, Süd"
osm:w226007477,48.18079810787295,10.838901583125269,Sportplatz
de:09772:7570,48.182948,10.844202,Lagerlechfeld
osm:w657970686,48.199400580948925,10.85117248035843,P+R-Parkplatz
osm:w23996033,48.3369877210892,10.89185370700388,Messeparkplatz
de:09761:715,48.346733,10.876191,"Göggingen, Maria Stern"
osm:n599590534,48.3455185,10.8662459,P+R-Parkplatz
osm:w229090722,48.36491908133131,10.859098351209564,P+R Sheridan-Park
de:09761:27,48.37342,10.85614,"Augsburg, Dayton Ring"
de:09772:6075,48.49665,10.859769,"Langweid am Lech, Meitinger Str. "
osm:w458052532,48.54556532262494,10.847726393755467,P+R-Parkplatz
osm:w480450219,48.59259857116752,10.837073836848226,P+R West
de:09779:5333,48.700325,10.799537,"Nordheim, Bäumenheimer Str."
de:09779:56,48.700752,10.798316,"Nordheim, Ortsmitte"
de:09779:7304,48.701843,10.796699,"Nordheim, Kapelle"
de:09779:5323,48.705252,10.793483,"Nordheim, Raiffeisenbank"
de:09779:5428,48.709941,10.788587,"Donauwörth, Augsburger Straße"
de:09779:5414,48.716289,10.784158,"Donauwörth, Kapellstraße"
de:09779:6986,48.71716,10.781868,"Donauwörth, Umkehr"
de:09779:5420,48.717475,10.781131,"Donauwörth, Stadthof"
de:09779:5416,48.718227,10.791156,"Donauwörth, Schellenberg"
tmp-65,48.8423558,10.8562708,"Monheim, Monheim"
de:09779:5403,48.698203,10.675875,Brachstadt
de:09779:5402,48.688715,10.689835,"Bergmühle, St 2221"
de:09779:5401,48.684208,10.706463,"Erlingshofen, Feuerwehrhaus"
de:09779:5407,48.682779,10.709284,"Erlingsh., Donauw. Str."
de:09779:5629,48.705388,10.751531,"Donauwörth, Abz Posthof B16"
de:09779:5626,48.713166,10.760712,"Donauwörth, A.-Proeller-Str."
de:09779:6739,48.717237,10.763784,"Donauwörth, Dillinger Str."
de:09779:58,48.716265,10.768429,"Donauwörth, Härpferpark"
osm:w25707219,48.71518170027804,10.77014492370428,P+R-Parkplatz
de:09779:6984,48.715939,10.777987,"Donauwörth, Weidenweg"
de:09779:6983,48.71559,10.789611,"Donauwörth, Agentur für Arbeit"
tmp-66,48.7129017,10.794285,"Schützenring, Donauwörth"
de:09274:3242,48.599036,12.239806,"Ohu, Abzw Essenbacher Str."
tmp-67,48.6039453,12.2509139,"Oberahrain, Essenbach"
de:09162:1014,48.098876,11.636399,Wilhelm-Hoegner-Straße
de:09162:1019,48.100219,11.630578,Pfanzeltplatz
de:09162:1033,48.103807,11.624667,Weddigenstraße
de:09162:1047,48.106308,11.621199,Adilostraße
de:09162:1032,48.108402,11.618945,Woferlstraße
de:09162:1031,48.112186,11.617382,Diakon-Kerolt-Weg
de:09186:90027,48.710202,11.523687,"Manching, Airbus 3"
de:09186:90020,48.714819,11.527334,"Manching, WTD 61"
de:09176:7615,48.790026,11.376912,"Gaimersheim, Gewerbegebiet"
de:09185:8639,48.713118,11.241949,"Zell (Neuburg), Kirche"
de:09185:5131,48.695475,11.223264,"Rosing, Abzweig"
de:09185:5076,48.689706,11.215529,"Obermaxfeld, Friedhof"
de:09185:5115,48.686539,11.210229,Obermaxfeld
de:09185:1835,48.681379,11.203779,Abzweig Obermaxfeld
de:09185:1834,48.668993,11.213256,"Stengelheim, Kreuzung-Pfalzstr"
de:09185:702,48.66563,11.215727,"Stengelheim, Rathaus"
de:09185:1833,48.6635,11.216589,"Stengelheim, Kreuzung-Fruchthof"
de:09185:469,48.655038,11.203959,"Ludwigsmoos, Abz Lampertshofen"
de:09185:1832,48.650433,11.197123,"Ludwigsmoos, Haus-Nr. 78"
tmp-68,48.6494556,11.1936206,Ludwigsmoos
de:09273:435,48.731999,11.813915,"St. Johann, Abensstr."
de:09273:434,48.731104,11.812603,"St. Johann, Mainburger Straße"
de:09161:519,48.747722,11.464722,"IN, Messerschmittstraße"
de:09161:7993,48.739897,11.452981,"IN, Am Stadtweg"
de:09161:7992,48.740791,11.449989,"IN, Geisenfelder Straße"
de:09161:180,48.741804,11.447573,"IN, Erletstraße"
de:09161:7991,48.743362,11.44477,"IN, Hans-Mielich-Straße"
tmp-69,48.74425435,11.4428466465,"ESV Stadion, Ingolstadt"
de:09278:2631,48.772659,12.262408,Ettersdorf bei Mallersdorf
de:09278:3517,48.770379,12.257054,"MAL-Pfaffenberg, Förderschule"
osm:w225886473,48.7683862,12.257069249999997,P+R-Parkplatz
de:09278:2979,48.776436,12.251862,"MAL-Pfaffenberg, Marktplatz"
de:09278:922,48.799139,12.208293,Stofflach
de:09278:232,48.802252,12.201134,Hörgelsdorf
de:09375:1058,48.806121,12.184461,Roflach
de:09375:595,48.813498,12.171049,Buchhausen Ortsmitte
de:09375:313,49.039356,12.094441,Neukareth Ri. Oppersdorf
de:09376:80021,49.310383,12.168202,"Wackersdorf, Alberndorf"
de:09376:80395,49.315941,12.228452,"Wackersdorf, Industriegebiet / BMW"
tmp-70,49.3194513,12.2357679147,"Innovationspark Wackersdorf, Wackersdorf"
de:09279:3353,48.673781,12.693258,"Landau, Isarbrücke-Süd"
de:09279:3397,48.568241,12.734473,"Simbach, Mitterloh"
de:09279:3398,48.568354,12.735784,"Simbach, Festplatz"
de:09279:3392,48.570851,12.752151,Scharloh Abzw.
de:09279:3393,48.571683,12.764054,Schnarrn
de:09277:3394,48.572355,12.769273,"Ruppertskirchen, Abzw."
de:09277:3395,48.568455,12.789944,Zwilling
de:09277:3396,48.564145,12.801864,Altmannskinden
de:09277:11896,48.562962,12.806544,"Arnstorf, Fa. Lindner"
de:09277:3399,48.564276,12.811656,"Arnstorf, Bahnhof"
de:09277:11523,48.56364,12.81842,"Arnstorf, Kindergarten"
de:09279:11066,48.60361,12.769426,Schwatzen
de:09279:581,48.606432,12.762509,Mittermadl
de:09279:3375,48.614497,12.758961,"Aufhausen, Bahnhofplatz"
de:09279:3374,48.617965,12.758062,"Aufhausen, Gasthaus Buchner"
de:09279:3373,48.625994,12.74359,Reichersdorf
de:09279:6855,48.621071,12.713775,"Mettenhausen, Kreuzung Milchstraße"
de:09279:482,48.633635,12.709499,Rohrhof
de:09279:3365,48.673366,12.695234,"Landau, Spitalplatz"
de:09171:1443,48.226503,12.661484,"Altötting, Mühldorfer Str. 57"
de:09171:1228,48.315182,12.738784,"Schöftenhub, B588"
de:09277:6006,48.394057,12.767899,"Eggenfelden, Gymnasium B20"
osm:n2395109953,48.4008351,12.7637815,Busparkplatz
de:09372:1249,49.205989,12.666416,"Cham, Janahof, Siemens"
de:09372:1296,49.215009,12.668482,"Cham, Stadellohe, Ströder"
de:09372:1321,49.217826,12.667494,"Cham, Grundschule"
de:09276:5002,48.968369,13.128105,"Regen, Ruselstraße"
de:09276:16359,48.966629,13.117487,"Regen, Freibad"
de:09276:5003,48.966158,13.107992,"Regen, Oleumbrücke 1"
de:09276:10198,48.954768,13.09891,"Oberneumais, Abzw."
de:09276:5004,48.950491,13.099557,"Reinhartsmais, Hausnr. 2"
de:09276:5008,48.923052,13.112439,"Langbruck, Mühle"
de:09276:5010,48.912072,13.116436,Birkenthal
de:09276:2030,48.903617,13.096907,"Ritzmais, Abzw"
de:09276:2029,48.897546,13.092945,Scheibe
de:09276:2028,48.890861,13.091265,Ritzmaisersäge
de:09271:2027,48.877345,13.084681,"Rusel, Golfplatz"
de:09271:16777,48.862892,13.077324,Böhaming
de:09271:16776,48.858489,13.072122,Ensmannsberg
de:09271:6833,48.835818,13.050015,"Hainstetten, Abzw"
de:09271:11803,48.830916,13.056033,"Obersteinhausen, Abzw."
de:09271:2938,48.824943,13.05447,Penk
de:09271:2939,48.819408,13.0497,Oberfrohnstetten
de:09271:2940,48.813203,13.044077,Unterfrohnstetten
de:09271:2941,48.799648,13.050608,Untersimbach
de:09271:2942,48.794796,13.048542,"Eusching, Abzw"
tmp-71,48.5664526,13.3627211,Passau
de:09779:6572,48.856669,10.791147,"Asbacherhof, Bahnbrücke"
de:09779:6536,48.855593,10.797184,"Nußbühl, Bahnbrücke"
de:09779:6449,48.731798,10.777942,"Don-Berg, Nürnberger Str."
de:09779:5424,48.725647,10.778211,"Donauwörth, Gymnasium"
de:09779:5413,48.724118,10.778023,"Donauwörth, Berger Vorstadt"
de:09779:5408,48.721511,10.777852,"Donauwörth, Pflegstr."
de:09779:5412,48.719537,10.776496,"Donauwörth, Marienapotheke"
de:09779:5411,48.719288,10.777592,"Donauwörth, Liebfrauenmünster"
tmp-72,48.7180364,10.7807299,86609 Donauwörth
de:09263:1924,48.877487,12.573863,"Straubing, Bahnhofsplatz"
de:09263:80083,48.874952,12.572776,Gäubodenpark
de:09263:80082,48.871768,12.573512,Johannes-Kepler-Straße
de:09263:2169,48.869014,12.573926,Landshuter Straße / Äuß. Frühlingstraße
de:09263:2172,48.867336,12.573737,"Straubing, Ziegelei Jungmeier"
de:09263:80094,48.858891,12.575758,Institut für Hörgeschädigte
de:09279:3354,48.678099,12.683781,"Landau, Gymnasium"
de:09279:3351,48.677524,12.688344,"Landau, Dr.-Schlögl-Platz"
de:09362:11060,49.021068,12.094818,Regensburg Fischmarkt
de:09362:11181,49.021722,12.09065,Regensburg Keplerstraße
de:09362:11010,49.019861,12.08977,Arnulfsplatz
de:09362:15028,49.018659,12.08438,Regensburg Taxisstraße
de:09362:15009,49.017115,12.076708,Regensburg Goethestraße
de:09362:15016,49.016485,12.071938,Regensburg Lessingstraße
de:09279:429,48.630429,12.494389,"Dingolfing, Fischerei"
de:09279:428,48.629598,12.496329,"Dingolfing, Bruckstraße"
de:08111:6130,48.741259,9.218736,Stuttgart Schemppstraße
de:08111:2131,48.743149,9.215152,Spaichinger Straße
de:08111:2430,48.744221,9.214226,Kirchheimer Straße
de:08111:6134,48.7445,9.213086,Stuttgart Sillenbuch
de:08111:129,48.747929,9.207723,Stuttgart Silberwald
de:08111:6128,48.753337,9.195119,Stuttgart Ruhbank (Fernsehturm)
osm:w122080676,48.76597144629457,9.200734029700937,P+R-Parkplatz
de:08111:7905,48.772434,9.197778,Bubenbad (Bus)
de:08111:7904,48.775275,9.200922,Heidehofgymnasium
de:08111:2310,48.777584,9.203024,Stuttgart Planckstraße
de:08111:2406,48.780141,9.200626,Stuttgart Tunnel Ostportal
de:08111:6112,48.78316,9.181124,Stuttgart Hauptbf (Arnulf-Klett-Platz)
de:08111:6118,48.783385,9.180225,Stuttgart Hauptbahnhof (tief)
de:08111:6116,48.790677,9.181177,Stadtbibliothek
de:08111:303,48.793985,9.18213,Friedhofstraße
de:08111:115,48.798092,9.18257,Eckartshaldenw. (Pra
de:08111:6114,48.803695,9.183486,Stuttgart Löwentorbrücke
osm:w125194340,49.40802627927522,9.477956507461768,P+M Parkplatz AS Osterburken
osm:w329801481,49.46957586932326,9.554249257730566,P+R AS Boxberg
osm:w32076135,49.60319296487701,9.691861927291264,P+M Distelhausen
de:09461:20055,49.913864,10.877897,Bamberg Coburger Str.
de:09461:20005,49.90098,10.897777,"Bamberg, Bahnhof/Ludwigstr."
de:09461:20222,49.897468,10.894453,Bamberg Luitpoldstr.
de:09461:20444,49.892827,10.892944,Bamberg Willy-Lessing-Str.
de:09461:20201,49.892399,10.892243,Bamberg Promenade/ZOB
de:09461:20343,49.891681,10.892558,Bamberg Schönleinsplatz
de:09461:20333,49.88998,10.891785,Bamberg Schillerplatz
de:09461:20230,49.890159,10.88627,Bamberg Schranne
de:09162:760,48.19595,11.571819,Am Hart
de:09162:756,48.195033,11.572133,Am Hart Süd
osm:w4538457,48.19308472042966,11.5707545233994,BMW FIZ Parkhaus
de:09162:752,48.19162,11.572349,Knorrstraße
de:09162:416,48.187608,11.575825,Oberhofer Platz
de:09162:426,48.187841,11.584431,Ingolstädter Straße
de:09162:427,48.187482,11.597053,Funkkaserne West
de:09162:428,48.186907,11.602398,Funkkaserne
de:09161:7439,48.772073,11.446226,"IN, Geibelstraße"
de:09161:7572,48.771948,11.44009,"IN, Pestalozzistraße"
de:09161:8006,48.77119,11.435949,"IN, Nürnberger Straße"
osm:w217988206,48.77228975861471,11.433056582200772,P+R-Parkplatz
de:09161:8007,48.772742,11.431942,"Ingolstadt, Nordbahnhof West"
tmp-73,48.7735085,11.4323147,", Ingolstadt"
osm:w26683095,49.260917649663945,11.211490698513755,P4
de:09472:23752,49.664758,11.468333,Plech Autobahneinfahrt
osm:n1083458195,52.2049418,10.5261525,P+R
de:03101:362,52.228323,10.531669,"Braunschweig, Sachsendamm"
de:03101:265,52.233182,10.52918,"Braunschweig, HEH-Kliniken"
de:03101:352,52.240867,10.527725,"Braunschweig, Richmondweg"
de:03101:223,52.246422,10.528866,"Braunschweig, Jahnplatz"
de:03101:85,52.250872,10.529423,"Braunschweig, Bürgerpark"
de:03101:187,52.251691,10.535936,"Braunschweig, H.-Büssing-Ring"
de:03101:396,52.256398,10.540068,"Braunschweig, Willy-Brandt-Platz"
de:03101:272,52.259082,10.540832,"BS, St. Leonhard (Stadthalle)"
de:03101:234,52.262947,10.543005,"Braunschweig, Kastanienallee"
de:03101:225,52.267944,10.539996,"Braunschweig, Jasperallee"
de:03101:149,52.272809,10.537068,"Braunschweig, Gliesmaroder Straße"
de:03101:171,52.275514,10.535648,"Braunschweig, Hans-Sommer-Str."
de:09162:1107,48.114957,11.59248,Werinherstraße
de:09162:1044,48.115047,11.597107,Ungsteiner Straße
de:09162:984,48.115629,11.601616,Thomasiusplatz West
de:09162:1070,48.117938,11.608425,Karl-Preis-Platz
de:09162:898,48.12469,11.61307,Sankt Pius
de:09162:921,48.126423,11.613474,Mühldorfstraße
de:09161:1625,48.75872,11.439282,"IN, Saturn-Arena"
de:09161:7997,48.759638,11.430254,"IN, Brückenkopf"
de:09161:7429,48.76135,11.42631,"Ingolstadt, Tränktorstr."
de:09161:8000,48.762404,11.425474,"IN, Rathausplatz/Schutterstr."
de:09163:127,47.85212,12.130823,Ro Max-Bram-Platz
de:09163:367,47.850993,12.130912,"Rosenheim, Eisstadion"
osm:w602253852,47.8487387,12.11967395,P+R-Parkplatz
de:09163:130,47.842962,12.123501,Ro Alpenweg
de:09187:41861,47.81326,12.118282,Pfraundorf OBI-Markt / AVG
de:16053:153019,50.886353,11.611736,"Jena, Neulobeda"
de:16053:153009,50.892548,11.60267,"Jena, Lobeda"
de:16053:153143,50.90374,11.594859,"Jena, Wöllnitz"
de:16053:153074,50.910767,11.586082,"Jena, Neuwöllnitz"
de:16053:153199,50.91224,11.586204,"Jena, Neuwöllnitz, Ort"
de:16053:153075,50.915237,11.587294,"Jena, Sportforum"
de:16053:153117,50.91987,11.589572,"Jena, Jenertal"
de:16053:153172,50.92773,11.59058,"Jena, Tonnenmühle"
de:16053:153026,50.92944,11.59071,"Jena, Universität"
de:16053:153209,50.93003,11.58825,"Jena, ThULB"
de:09185:90019,48.663244,11.215987,"Stengelheim, Rathaus"
tmp-74,48.7864579,11.4076971,"Audi - Tor 10, Ingolstadt"
de:09571:12955,49.280564,10.685703,Lichtenau (Lkr. AN) Festplatz
de:09564:531,49.439576,11.067208,Nürnberg Landgrabenstr.
de:09564:620,49.442841,11.068197,Nürnberg-Steinbühl
de:09564:630,49.445323,11.068807,Nürnberg Kohlenhof
de:09564:706,49.447151,11.06799,Nürnberg Plärrer Ost
de:09564:730,49.451082,11.066786,Nürnberg Obere Turnstr.
de:09564:234,49.455181,11.070317,Nürnberg Hallertor
de:09564:148,49.454293,11.073784,Nürnberg Weintraubengasse
de:09564:151,49.454445,11.076317,Nürnberg Hauptmarkt
tmp-75,49.453872,11.077298,Nürnberg
de:09373:17093,49.278964,11.461533,Neumarkt Rosengasse
de:09373:17057,49.280371,11.46218,Neumarkt Klostertor
de:09373:17097,49.281707,11.463177,Neumarkt Museum Lothar Fischer
de:09373:17017,49.283383,11.464138,Neumarkt Abzw. EFA-Str.
de:09373:17006,49.286096,11.466941,Neumarkt Amberger Str.
de:09373:17084,49.287953,11.470148,Neumarkt Pulveräcker
de:09373:17059,49.293121,11.476023,Neumarkt Kohlenbrunnermühlstr.
de:09373:16998,49.294164,11.478017,Neumarkt Abzw. Regerstr.
de:09373:17125,49.306834,11.481736,Abzw. Guglhof
de:09373:17724,49.314986,11.476104,Neumarkt Autobahnmeisterei
osm:w136997290,49.41406051424625,11.173732566827857,P+R-Parkplatz
de:09564:1446,49.429411,11.138813,Nürnberg Wohnanl.Regensb.Str.
de:09564:1451,49.432396,11.131662,Nürnberg Hans-Kalb-Str.
de:09564:1449,49.432934,11.130216,Nürnberg Regensburger Str.
de:09564:1455,49.437198,11.120146,Nürnberg Waldlust
de:09564:440,49.43867,11.113912,Nürnberg Fliegerstr.
de:09564:439,49.440002,11.111253,Nürnberg Immelmannstr.
de:09564:438,49.442823,11.104336,Nürnberg Scharrerstr.
de:09564:437,49.443063,11.099081,Nürnberg Peterskirche
de:09564:460,49.44631,11.093394,Nürnberg Untere Baustr.
de:09564:462,49.446106,11.088957,Nürnberg Köhnstr.
de:09564:431,49.447595,11.088588,Nürnberg Marientunnel
osm:w315610025,49.446438268781584,11.08369796625239,Parkhaus Hauptbahnhof
tmp-76,49.44620305,11.0818654059,"Nürnberg Hauptbahnhof, Nürnberg"
de:09161:7531,48.763316,11.430972,"IN, Stadttheater"
de:09161:308,48.767271,11.443935,"IN, Heysestraße"
de:09161:232,48.76797,11.449262,"IN, Ganghoferstraße"
de:09161:613,48.768591,11.453143,"IN, Regensburger Straße"
de:09161:262,48.771575,11.456718,"IN, Gutenbergstraße"
de:14524:10364,50.634848,12.432773,"Voigtsgrün, Autobahnbrücke"
osm:w4499710,51.081072144448115,13.690588860786338,P+R Dresden-Kaditz
osm:w265161168,51.11788253327467,13.743847816276459,Flughafen P+R
de:12066:900435011,51.585874,13.998656,"Großräschen, Freienhufener Str."
tmp-77,51.5883265,14.0123136,Großräschen
de:09176:8870,48.892904,11.182822,"Eichstätt, Pfahlstraße"
de:09176:8735,48.860912,11.223578,"Weißenkirchen, B13"
tmp-78,48.7852451,11.4807317738,"Selgros, Ingolstadt"
de:09185:7713,48.730648,11.233037,"Heinrichsheim, Maibaum"
de:09185:7230,48.731804,11.23301,"Neuburg, An der Wolfsschütt"
de:09185:7646,48.735376,11.233864,"Heinrichsheim, Schwaigholzerst"
de:09185:7714,48.736644,11.234043,"Herrenwörth, Schwaigholzstraße"
de:09185:751,48.711144,11.327953,"Weichering, Gewerbegebiet"
de:09186:90028,48.716384,11.506179,"Manching, Ost,Forstwiesen"
de:09273:2206,48.766845,11.704716,"Schwaig, Hauptstr."
tmp-79,48.76466585,11.7072038378,"Umbertshausener Weg, Neustadt an der Donau"
de:09362:11151,49.012537,12.095034,Regensburg Fritz-Fend-Straße
de:09362:15036,49.017327,12.086976,Regensburg Wittelsbacherstraße
de:09362:15022,49.020138,12.082646,Regensburg Ostdeutsche Galerie
de:09362:15008,49.022665,12.078756,Regensburg Gumpelzhaimerstraße
de:09362:15001,49.023972,12.076385,Regensburg Albertus-Magnus-Gymnasium
de:09362:15012,49.024061,12.071821,Regensburg Josef-Adler-Straße
de:09376:80199,49.352674,12.065371,"Kreith, Abzw"
de:09371:18298,49.356109,12.058751,Abzw. Niederarling
de:09371:18937,49.427249,11.912307,Gärmersd. Schwepperm. Kaserne
de:09361:19786,49.437794,11.879869,Amberg Regensburger Str. Ost
de:09361:19783,49.441322,11.874039,Amberg Regensburger Hof
de:09361:19785,49.443962,11.86564,Amberg Regensburger Str.
osm:w112219455,49.44688398091066,11.863268596209085,Bahnhofsparkplatz
de:09361:19502,49.446538,11.86105,Amberg Bahnhofstr.
de:09361:19863,49.447338,11.859936,Amberg Ziegelgasse
tmp-80,49.4454211,11.858728,", Amberg"
de:09261:114,48.533252,12.150163,"Landshut, Obere Altstadt"
de:09261:112,48.53653,12.154152,"Landshut, Neustadt"
de:09261:129,48.536732,12.155329,"Landshut, Regierungsplatz"
de:09261:104,48.537719,12.157664,"Landshut, Maximilianstraße"
de:09261:6,48.538998,12.157107,"Landshut, Am Alten Viehmarkt"
de:09261:136,48.546165,12.153227,"Landshut, Schlachthofstraße"
de:09261:61,48.54711,12.156218,"Landshut, Karl-Eisenreich-Platz"
osm:w476282769,48.74119796940486,12.745072024905125,P+R-Parkplatz
de:09271:15070,48.830911,12.957614,"Deggendorf, Stadthallen"
de:09271:9129,48.829243,12.956554,"Deggendorf, Technische Hochschule"
de:09279:540,48.677891,12.688488,"Landau, Straubinger Straße Telefonzelle"
de:09263:2605,48.881498,12.573746,"Straubing, Gh Bayer. Löwe"
de:09263:80012,48.882142,12.572623,Ludwigspl./Burggasse
de:09263:80014,48.881977,12.572138,Ludwigsplatz ZUS
de:09263:80013,48.88193,12.57071,Ludwigspl./ Wende
osm:w86256143,48.88433775601731,12.565326402302995,Großparkplatz am Hagen
tmp-81,48.8819801,12.569716,Straubing
de:09278:3519,48.776264,12.250954,"MAL-Pfaffenberg, Feuerwehr"
de:09278:2822,48.776732,12.250856,"MAL-Pfaffenberg, Abzw Krankenhaus"
de:09372:1711,49.172706,12.846322,"Bad Kötzting, Abzw. Bahnhof"
de:09372:1951,49.162833,12.78591,"Miltach, Tiefental"
de:09372:51335,49.159402,12.77416,"Miltach, Siedlung"
de:09372:1950,49.157675,12.768887,"Miltach, Kirche"
tmp-82,49.1555851,12.7258281,Zandt
de:09363:123,49.670427,12.160503,Weiden Naabwiesen
osm:w443624459,49.671206303138334,12.154507958807539,P+R-Parkplatz
de:09363:250,49.673165,12.160728,Weiden Neues Rathaus
de:09363:30,49.676635,12.161051,Weiden Josefskirche
de:09363:201,49.679687,12.16097,"Weiden, Nikolaistraße"
tmp-83,49.68106455,12.1664381528,"Klinikum Weiden, Weiden in der Oberpfalz"
de:09561:11171,49.30305,10.572201,Ansbach Rathaus
de:09561:11127,49.304239,10.565688,Ansbach Kasernendamm
de:09561:11055,49.304854,10.570781,Ansbach Brücken-Center
de:09561:11149,49.304643,10.572856,Ansbach Museumssteg
de:09561:11211,49.302506,10.57892,Ansbach Inselwiese
de:09561:11329,49.289283,10.608133,Eyb Aumühle
de:09571:13327,49.284748,10.659724,Abzw. Rutzendorf
osm:w50322299,49.724472451826784,12.151727563834188,P+R Altenstadt
de:09377:7426,49.968186,12.260845,"Hofteich, Abzw"
de:09377:7427,49.97717,12.270609,Neupleußen
de:09377:7428,49.991737,12.288046,Kondrau
de:09377:7429,50.001023,12.297891,"Waldsassen, Gh Egerländer"
tmp-84,50.0053222,12.3041123,Waldsassen
de:09375:20004,48.981324,12.058724,Pentling Großberger Weg
de:09375:31,48.980239,12.06627,Abzw. Pentling
de:09262:180,48.575624,13.461632,"Passau, Rindermarkt"
de:09262:181,48.575107,13.464884,"Passau, Domplatz"
de:09262:182,48.574399,13.467345,"Passau, Residenzplatz"
de:09262:16,48.575398,13.468917,"Passau, Rathausplatz"
de:09262:185,48.576004,13.464515,"Passau, Schlosserstiege"
de:09262:15,48.576081,13.461272,"Passau, Nagelschmiedgasse"
de:09262:103,48.577127,13.45387,"Hacklberg, Eggendobl"
de:09262:187,48.575457,13.439075,"Hacklberg, Donauweg"
de:09262:363,48.576426,13.434458,"Passau, Lüftlbergstraße"
de:09262:129,48.575433,13.421783,Stelzlhof
de:09262:388,48.578257,13.414353,"Maierhof, Kachletstraße"
de:09262:130,48.581288,13.410805,Maierhof bei Passau
de:09262:134,48.596166,13.38355,Zieglstadl
de:09262:123,48.598442,13.378035,"Gaißa, Brücke"
de:09276:5009,48.922834,13.113041,Langbruck bei Bischofsmais
de:09276:5001,48.969979,13.126345,"Regen, Stadtplatz"
de:03352:21386,53.622619,8.737417,Drangstedt Hymendorfer Chaussee 41
de:03352:21390,53.617172,8.736672,Drangstedt Museumsbahn
de:03352:21384,53.617655,8.732473,Drangstedt Friedhof
de:03352:21382,53.617912,8.726781,Drangstedt Am Wurster Weg
de:03352:21388,53.618215,8.71353,Drangstedt Knüppelholz
de:03352:19218,53.621092,8.671137,Debstedt Rosenburg
de:04012:60947,53.545705,8.619506,Messpunkt BHV-Mitte
de:04012:61064,53.526078,8.623964,Messpunkt Geestemünde
de:04012:60949,53.496217,8.626654,Messpunkt BHV-Wulsdorf
de:03352:60948,53.464837,8.601537,Messpunkt BHV-Süd
osm:w23241373,53.13473093759195,8.74205639336973,P+R-Parkplatz
osm:w180344340,53.111208084307755,8.85392861989874,IW3/Cognium Hochschulring
osm:w5168910,53.110356929087914,8.856757929165092,BIBA/ZARM Hochschulring
de:03361:61197,52.999091,9.181483,Messpunkt Langwedel-Daverden
de:03361:61486,52.932103,9.285213,Messpunkt Verden-Ost
de:03358:61495,52.851508,9.557875,Messpunkt Walsrode-West
de:03358:61494,52.778575,9.669227,Messpunkt Walsrode
de:03358:60995,52.673735,9.693376,Messpunkt Buchholz(Aller)
osm:w27135776,52.33339553755477,10.258934619782515,P+R Pendlerparkplatz Essinghausen
osm:w4743335,52.31213620901952,10.515670024721594,P+R Lincolnsiedlung
de:03154:8660,52.232037,11.025985,"Helmstedt, Landgrabentrift"
de:15083:54041,52.050824,11.621458,"Dodendorf (Sülzetal), Ferdinand-von-Schill-Weg"
de:09376:80171,49.290912,12.197657,"Heselbach, Besenhard"
de:09376:80230,49.28957,12.209102,Meldau
de:09376:80005,49.263531,12.295511,Mögendorf
de:09376:1812,49.254397,12.335028,Mappach
de:09372:3534,49.230633,12.407701,"Roding, Kohlschlag"
de:09372:2327,49.206054,12.485756,"Roding, Altenkreith, Dorfmitte"
de:09372:2329,49.201605,12.508672,"Roding, Mitterdorf, Schönh."
de:09372:2342,49.200032,12.508367,"Roding, Mitterdorf, Sparkasse"
de:09372:2311,49.1957,12.518491,"Roding, Sparkasse"
de:09563:2260,49.464926,10.985839,Fürth Holzstr.
de:09563:2261,49.462094,10.986809,Fürth Kaiserstr.
de:09563:2262,49.459858,10.987761,Fürth Flößaustr.
de:09563:2266,49.454953,10.988875,Fürth Saarburger Str.
osm:w378939197,49.4803663216699,10.924105400226727,P+R-Parkplatz
de:09573:5091,49.49024,10.851199,Abzw. Seckendorf
de:09575:14300,49.555033,10.710407,Emskirchen
osm:w24577756,49.55482929465801,10.708562231888719,P+R-Parkplatz
de:09575:14033,49.569407,10.663973,Abzw. Eggensee
de:09575:14233,49.607708,10.629055,Neumühle (b. Diespeck)
de:09575:64402,49.615089,10.6306,Gutenstetten Blumenstraße
de:09575:14411,49.625809,10.612068,Kleinsteinach
de:09575:14651,49.638883,10.595422,Münchsteinach Ortsmitte
de:09575:14652,49.641582,10.592233,Münchsteinach Abzw. Neuebersb.
de:09575:14655,49.650755,10.585738,Weihermühle (b. Münchsteinach)
de:09575:14659,49.659723,10.570575,Mittelsteinach b.Münchsteinach
de:09575:14657,49.665828,10.580753,Abtsgreuth
de:09575:14658,49.674089,10.599069,Altershausen
de:09564:457,49.445306,11.107767,Nürnberg Bestelmeyerstr.
de:09564:458,49.446287,11.105297,Nürnberg Burgerstr.
de:09564:459,49.446112,11.101272,Nürnberg Cramergasse
de:09564:420,49.445878,11.097544,Nürnberg Stephanstr.
de:09564:427,49.448039,11.097527,Nürnberg-Dürrenhof
de:09564:366,49.451035,11.097302,Nürnberg Technische Hochschule
de:09564:359,49.452985,11.093772,Nürnberg TH Nürnberg
de:09564:361,49.455426,11.09131,Nürnberg Harmoniestr.
de:09564:332,49.457026,11.089127,Nürnberg Rathenauplatz
de:09564:340,49.460903,11.092433,Nürnberg Rennweg
de:09564:329,49.464085,11.095784,Nürnberg Stadtpark Schleife
de:09564:343,49.46694,11.097877,Nürnberg Welserstr.
de:09564:1337,49.469083,11.099898,Nürnberg Senefelderstr.
de:09564:1334,49.474535,11.103869,Nürnberg Bessemerstr.
de:09564:1333,49.477232,11.105809,Nürnberg Flataustr.
osm:w28556949,49.47823020279207,11.110035488011377,Herrnhütte
de:09564:1376,49.481434,11.115502,Nürnberg Hiltpoltsteiner Str.
de:09564:1372,49.489143,11.12585,Nürnberg Nordostpark
osm:w25433965,49.59632397295479,10.999381360097543,Großparkplatz
de:09562:3147,49.594306,11.00332,Erlang. Arcaden/Goethestr.
tmp-85,49.59731715,11.0068504661,"Kollegienhaus, Erlangen"
de:09361:19782,49.44558,11.85937,Amberg Rathaus
de:09362:11011,49.013244,12.088359,Regensburg Justizgebäude
de:09362:11091,49.01262,12.100181,"Regensburg, HBF/Arcaden"
osm:n3650181090,49.0122698,12.1024119,Castra Regina Center
de:09472:23757,49.667933,11.462036,Ottenhof (b. Plech) Ort
de:09472:23758,49.666299,11.46606,Ottenhof (Plech) Gewerbegebiet
de:09564:1311,49.47206,11.137295,Nürnberg-Erlenstegen
de:09564:1341,49.469147,11.130126,Nürnberg Platnersberg
de:09564:1340,49.466911,11.1255,Nürnberg Thumenberger Weg
de:09564:1346,49.465072,11.127512,Nürnberg Martin-Albert-Str.
de:09564:1428,49.463274,11.126686,Nürnberg Goldhammer
de:09564:1392,49.46349,11.123551,Nürnberg Weißer Weg
tmp-86,49.4639466,11.1212219,"Nürnberg Ost, Nürnberg"
tmp-87,49.9833919,10.2161574,Röthlein
de:09675:29316,49.801002,10.16097,Dettelbach Am Bach
de:09675:29318,49.800335,10.160099,Dettelbach Altstadt Süd
de:09675:29648,49.776487,10.152077,"Mainstockheim Ebracher Hof,Mainstockheim"
de:09675:29657,49.772966,10.151906,"Mainstockheim Ortsmitte,Mainstockheim"
de:09675:29656,49.766793,10.151286,"Mainstockheim Am Haselberg,Mainstockheim"
de:09675:29655,49.739114,10.16115,Kitzingen Rathaus
tmp-88,49.7339751,10.161216,Kitzingen
de:09675:29254,49.866315,10.165731,Abzw. Vogelsburg
de:09679:99007,49.869378,10.15726,ST 2260 Weißes Haus
de:09679:4049,49.868961,10.151511,Untereisenheim Abzweig
de:09679:3279,49.863558,10.128649,Prosselsheim Amtskeller
de:09679:4031,49.895333,10.069539,Bergtheim Schule
de:09679:4030,49.897474,10.067186,Bergtheim Ortsmitte
de:09679:3159,49.919035,10.027399,Hausen Abzweig Fährbrück
de:09679:3161,49.924917,10.026744,Hausen Petrinistraße
tmp-89,49.9270599,10.0264921,Hausen bei Würzburg
de:09673:6985,50.320948,10.213746,Bad Neustadt Hohntor
de:09673:27004,50.319726,10.206272,Bad Neustadt Schweinfurter Str.
osm:w369548018,50.25013215000001,10.1890208,P+R-Parkplatz
de:09672:27007,50.221014,10.124184,Nüdlingen Rathaus
de:09672:27341,50.218715,10.117914,Nüdlingen Kissinger Str./Riedweg
de:09672:27618,50.206114,10.099139,Winkels Münnerstädter Str.
de:09672:27009,50.203423,10.090632,Bad Kissingen Postgarage
de:09672:27661,50.204177,10.081541,Bad Kissingen Gymn./Realschule
de:09672:8162,50.203975,10.081029,Bad Kissingen Maxstraße/Realsch.
osm:w302276360,50.20201889080779,10.078595178309634,P6 Parkplatz Zentrum
de:09672:75171,50.201399,10.074759,"Bad Kissingen, Klieglplatz"
de:09672:25860,50.198852,10.075432,Bad Kissingen Theresienstraße
tmp-90,50.1983954,10.0750993,Bad Kissingen
de:09678:27198,49.984622,10.31407,Grettstadt Gh. Straub
de:09678:27197,49.986805,10.311501,Grettstadt Gochsheimer Str.
de:09678:29053,50.016218,10.285099,Gochsheim Südost
de:09678:27190,50.019098,10.282485,Gochsheim Mitte
de:09572:6256,49.711077,10.903032,Adelsdorf (ERH) Ev. Gemeindez.
de:09474:9522,49.706842,10.977988,Oesdorf Kirche
de:09474:9477,49.707109,11.006204,Wimmelbach (Hausen) Sportpl.
de:09474:9472,49.705035,11.011037,Wimmelbach (Hausen) A.Poststr.
de:09474:9014,49.704582,11.067083,Forchheim Abzw. Augraben
de:09474:9081,49.709718,11.06746,Forchheim Steinbühlstr.
osm:w35202541,49.71640515817853,11.0696332585302,P+R-Parkplatz
de:09474:9048,49.717948,11.067738,Forchheim Eisenbahnstr.
de:09474:9065,49.71814,11.065025,Forchheim Klosterstr.
de:09474:9091,49.718262,11.061666,Forchh. Paradepl./Cafe Schmitt
tmp-91,49.7186937,11.0596433,Forchheim
de:09674:75255,50.093194,10.794731,"Ebern, Marktplatz"
de:09674:17040,50.090421,10.854137,Abzw Gleusdorf
de:09674:17039,50.101768,10.855916,Hemmendorf
de:09473:16410,50.136823,10.896573,Schottenstein Abzw
de:09473:15218,50.150082,10.918654,Schleifenhan
de:09473:15217,50.163238,10.934482,Rossach Abzw B 4
tmp-92,50.2205429,11.0493598,Ebersdorf bei Coburg
de:09473:15215,50.17718,10.94926,Großheirath Ortsmitte
tmp-93,50.0943461,10.7950972,"Ebern, Ebern (VGem)"
de:09478:27219,50.10787,10.992397,"Bad Staffelstein, Obermaintherme"
osm:w149418005,50.10795184929576,10.994023448709486,P+R-Parkplatz
de:09473:17405,50.310445,11.024826,Oberwohlsbach Abzw Staatsstr
de:09473:75499,50.31239,11.026578,Oberwohlsbach
de:09473:17406,50.324922,11.03177,Waltersdorf
tmp-94,50.332519,11.0326301,"Mittelberg, Rödental"
de:09474:9070,49.718401,11.061549,Forchheim Marktplatz
de:09474:9036,49.705587,11.0664,Forchheim Benzstr.
de:09474:9071,49.69969,11.059501,Forchheim OBI
de:09474:9529,49.70776,10.978608,Oesdorf Siedlerstr.
tmp-95,49.7097619,10.8908195,Adelsdorf
de:09478:27200,50.108256,10.994238,Bad Staffelstein
tmp-96,50.1064259,10.9886803,Bad Staffelstein Auwaldstraße
de:09363:31,49.678647,12.166585,Weiden Justizgebäude/Klinikum
de:09362:14004,49.00998,12.058706,Regensburg Dechbetten-TELIS FINANZ
de:09362:14002,49.010805,12.058832,Dechbetten
tmp-97,49.0098829,12.0631622,"McDonald's, Regensburg"
de:09363:70,49.67978,12.153577,Weiden Keplerstraße
de:09363:71,49.680832,12.147495,Weiden Firma Seltmann
de:09363:72,49.681408,12.141629,Weiden Aichingerstraße
de:09363:152,49.681536,12.139455,Weiden Frühlingstraße
de:09363:153,49.683024,12.132188,Weiden Weidingweg 28
de:09363:171,49.684227,12.126502,Weiden Weidingweg 52
de:09363:154,49.685087,12.122226,Weiden Weidingweg/Fußgängerbrücke
de:09363:155,49.685697,12.116755,Weiden In der Weiding 15
de:09374:7449,49.799495,11.916053,Grünbach bei Trabitz
de:09377:7544,49.812893,11.903863,Troglau
de:09377:7546,49.845007,11.889715,"Löschwitz, Bushaltestelle"
de:09377:7549,49.865006,11.866484,Oberndorf bei Kemnath
de:09377:7550,49.868683,11.853836,Neuwirtshaus
de:09472:22923,49.873726,11.833265,Wirbenz B22
de:09472:22903,49.877078,11.814427,Lettenhof b. Speichersdorf
de:09472:22765,49.910278,11.660617,Lehen Bundesstr.
de:09462:22152,49.934846,11.58321,Bayreuth Kreuzsteinbad
de:09462:22178,49.936864,11.576436,Bayreuth Mühlhofer Stift
de:09462:22012,49.940356,11.572268,Bayreuth Ämtergebäude
tmp-98,49.9427202,11.5763079,Bayreuth
de:14627:5026,51.291688,13.531575,Großenhain Frauenmarkt
de:14627:5022,51.288688,13.525089,Großenhain Herrmannstr. / LRA
de:14627:5025,51.287272,13.523148,"GRH, Cottb. Bf. (Ersatz)"
de:14627:5028,51.28598,13.521666,Großenhain Parkstraße
de:14627:5041,51.282744,13.52093,Großenhain Priestewitzer Str
de:14627:5101,51.254613,13.509018,Priestewitz Abzw Strießen
de:14627:5102,51.249463,13.505479,Priestewitz Meißner Straße
de:14627:5104,51.244678,13.503421,Priestewitz Abzw Porschütz
de:14627:5155,51.236455,13.502622,Wantewitz B 101
de:14627:5153,51.232496,13.503664,Piskowitz  (b GRH)
de:14627:5151,51.228159,13.505272,Gävernitz
de:14627:4119,51.203968,13.506098,Ockrilla Abzweig Jessen
de:14627:4115,51.195717,13.50573,Ockrilla An der Siedlung
de:14627:4118,51.19226,13.503655,Ockrilla Abzweig Diera
de:14627:4068,51.184822,13.499128,Meißen Baumschule
de:14627:4059,51.176584,13.494923,Meißen Bohnitzscher Str
de:14627:4064,51.175159,13.493522,Meißen Gerichtsweg
de:14627:4063,51.172467,13.494151,Meißen Trinitatiskirchweg
de:14627:4062,51.169403,13.493926,Meißen Bennoweg
de:14627:4061,51.16791,13.49266,Meißen Gartenstraße
osm:w166647000,51.16628821629423,13.473920838988128,Elbkai
de:14627:4522,51.148541,13.439039,Schletta Ziegelscheune
de:14627:4525,51.138086,13.41686,Abzweig Löthain
de:14627:4580,51.129292,13.390593,Görna
de:14627:4587,51.10641,13.368512,Soppen
de:14627:4560,51.093446,13.356098,Katzenberg
de:14627:4573,51.085338,13.348112,Neugohla
de:14627:4575,51.077466,13.341976,Wendischbora
de:09374:7018,49.723477,12.160584,"Altenstadt, Abzw. Parkst. Str."
de:09374:7019,49.726131,12.163342,"Altenstadt, Waldnaabbrücke"
osm:w605005642,49.72762404662907,12.169090527333285,P+R-Parkplatz
de:09374:7725,49.718878,12.181299,"Aich, Abzw"
